[{"id": "110100", "city": "北京市", "lng": "116.405285", "lat": "39.904989", "city_code": "010", "full_name": "中国,北京,北京市", "areas": [{"area_id": "110101", "area_name": "东城区", "area_lng": "116.41005", "area_lat": "39.93157", "area_full_name": "中国,北京,北京市,东城区"}, {"area_id": "110102", "area_name": "西城区", "area_lng": "116.36003", "area_lat": "39.9305", "area_full_name": "中国,北京,北京市,西城区"}, {"area_id": "110105", "area_name": "朝阳区", "area_lng": "116.48548", "area_lat": "39.9484", "area_full_name": "中国,北京,北京市,朝阳区"}, {"area_id": "110106", "area_name": "丰台区", "area_lng": "116.28625", "area_lat": "39.8585", "area_full_name": "中国,北京,北京市,丰台区"}, {"area_id": "110107", "area_name": "石景山区", "area_lng": "116.2229", "area_lat": "39.90564", "area_full_name": "中国,北京,北京市,石景山区"}, {"area_id": "110108", "area_name": "海淀区", "area_lng": "116.29812", "area_lat": "39.95931", "area_full_name": "中国,北京,北京市,海淀区"}, {"area_id": "110109", "area_name": "门头沟区", "area_lng": "116.10137", "area_lat": "39.94043", "area_full_name": "中国,北京,北京市,门头沟区"}, {"area_id": "110111", "area_name": "房山区", "area_lng": "116.14257", "area_lat": "39.74786", "area_full_name": "中国,北京,北京市,房山区"}, {"area_id": "110112", "area_name": "通州区", "area_lng": "116.65716", "area_lat": "39.90966", "area_full_name": "中国,北京,北京市,通州区"}, {"area_id": "110113", "area_name": "顺义区", "area_lng": "116.65417", "area_lat": "40.1302", "area_full_name": "中国,北京,北京市,顺义区"}, {"area_id": "110114", "area_name": "昌平区", "area_lng": "116.2312", "area_lat": "40.22072", "area_full_name": "中国,北京,北京市,昌平区"}, {"area_id": "110115", "area_name": "大兴区", "area_lng": "116.34149", "area_lat": "39.72668", "area_full_name": "中国,北京,北京市,大兴区"}, {"area_id": "110116", "area_name": "怀柔区", "area_lng": "116.63168", "area_lat": "40.31602", "area_full_name": "中国,北京,北京市,怀柔区"}, {"area_id": "110117", "area_name": "平谷区", "area_lng": "117.12133", "area_lat": "40.14056", "area_full_name": "中国,北京,北京市,平谷区"}, {"area_id": "110228", "area_name": "密云县", "area_lng": "116.84295", "area_lat": "40.37618", "area_full_name": "中国,北京,北京市,密云县"}, {"area_id": "110229", "area_name": "延庆县", "area_lng": "115.97494", "area_lat": "40.45672", "area_full_name": "中国,北京,北京市,延庆县"}]}, {"id": "120100", "city": "天津市", "lng": "117.190182", "lat": "39.125596", "city_code": "022", "full_name": "中国,天津,天津市", "areas": [{"area_id": "120101", "area_name": "和平区", "area_lng": "117.21456", "area_lat": "39.11718", "area_full_name": "中国,天津,天津市,和平区"}, {"area_id": "120102", "area_name": "河东区", "area_lng": "117.22562", "area_lat": "39.12318", "area_full_name": "中国,天津,天津市,河东区"}, {"area_id": "120103", "area_name": "河西区", "area_lng": "117.22327", "area_lat": "39.10959", "area_full_name": "中国,天津,天津市,河西区"}, {"area_id": "120104", "area_name": "南开区", "area_lng": "117.15074", "area_lat": "39.13821", "area_full_name": "中国,天津,天津市,南开区"}, {"area_id": "120105", "area_name": "河北区", "area_lng": "117.19697", "area_lat": "39.14816", "area_full_name": "中国,天津,天津市,河北区"}, {"area_id": "120106", "area_name": "红桥区", "area_lng": "117.15145", "area_lat": "39.16715", "area_full_name": "中国,天津,天津市,红桥区"}, {"area_id": "120110", "area_name": "东丽区", "area_lng": "117.31436", "area_lat": "39.0863", "area_full_name": "中国,天津,天津市,东丽区"}, {"area_id": "120111", "area_name": "西青区", "area_lng": "117.00927", "area_lat": "39.14123", "area_full_name": "中国,天津,天津市,西青区"}, {"area_id": "120112", "area_name": "津南区", "area_lng": "117.38537", "area_lat": "38.99139", "area_full_name": "中国,天津,天津市,津南区"}, {"area_id": "120113", "area_name": "北辰区", "area_lng": "117.13217", "area_lat": "39.22131", "area_full_name": "中国,天津,天津市,北辰区"}, {"area_id": "120114", "area_name": "武清区", "area_lng": "117.04443", "area_lat": "39.38415", "area_full_name": "中国,天津,天津市,武清区"}, {"area_id": "120115", "area_name": "宝坻区", "area_lng": "117.3103", "area_lat": "39.71761", "area_full_name": "中国,天津,天津市,宝坻区"}, {"area_id": "120116", "area_name": "滨海新区", "area_lng": "117.70162", "area_lat": "39.02668", "area_full_name": "中国,天津,天津市,滨海新区"}, {"area_id": "120221", "area_name": "宁河县", "area_lng": "117.8255", "area_lat": "39.33048", "area_full_name": "中国,天津,天津市,宁河县"}, {"area_id": "120223", "area_name": "静海县", "area_lng": "116.97436", "area_lat": "38.94582", "area_full_name": "中国,天津,天津市,静海县"}, {"area_id": "120225", "area_name": "蓟县", "area_lng": "117.40799", "area_lat": "40.04567", "area_full_name": "中国,天津,天津市,蓟县"}]}, {"id": "130100", "city": "石家庄市", "lng": "114.502461", "lat": "38.045474", "city_code": "0311", "full_name": "中国,河北省,石家庄市", "areas": [{"area_id": "130102", "area_name": "长安区", "area_lng": "114.53906", "area_lat": "38.03665", "area_full_name": "中国,河北省,石家庄市,长安区"}, {"area_id": "130104", "area_name": "桥西区", "area_lng": "114.46977", "area_lat": "38.03221", "area_full_name": "中国,河北省,石家庄市,桥西区"}, {"area_id": "130105", "area_name": "新华区", "area_lng": "114.46326", "area_lat": "38.05088", "area_full_name": "中国,河北省,石家庄市,新华区"}, {"area_id": "130107", "area_name": "井陉矿区", "area_lng": "114.06518", "area_lat": "38.06705", "area_full_name": "中国,河北省,石家庄市,井陉矿区"}, {"area_id": "130108", "area_name": "裕华区", "area_lng": "114.53115", "area_lat": "38.00604", "area_full_name": "中国,河北省,石家庄市,裕华区"}, {"area_id": "130109", "area_name": "藁城区", "area_lng": "114.84671", "area_lat": "38.02162", "area_full_name": "中国,河北省,石家庄市,藁城区"}, {"area_id": "130110", "area_name": "鹿泉区", "area_lng": "114.31347", "area_lat": "38.08782", "area_full_name": "中国,河北省,石家庄市,鹿泉区"}, {"area_id": "130111", "area_name": "栾城区", "area_lng": "114.64834", "area_lat": "37.90022", "area_full_name": "中国,河北省,石家庄市,栾城区"}, {"area_id": "130121", "area_name": "井陉县", "area_lng": "114.14257", "area_lat": "38.03688", "area_full_name": "中国,河北省,石家庄市,井陉县"}, {"area_id": "130123", "area_name": "正定县", "area_lng": "114.57296", "area_lat": "38.14445", "area_full_name": "中国,河北省,石家庄市,正定县"}, {"area_id": "130125", "area_name": "行唐县", "area_lng": "114.55316", "area_lat": "38.43654", "area_full_name": "中国,河北省,石家庄市,行唐县"}, {"area_id": "130126", "area_name": "灵寿县", "area_lng": "114.38259", "area_lat": "38.30845", "area_full_name": "中国,河北省,石家庄市,灵寿县"}, {"area_id": "130127", "area_name": "高邑县", "area_lng": "114.61142", "area_lat": "37.61556", "area_full_name": "中国,河北省,石家庄市,高邑县"}, {"area_id": "130128", "area_name": "深泽县", "area_lng": "115.20358", "area_lat": "38.18353", "area_full_name": "中国,河北省,石家庄市,深泽县"}, {"area_id": "130129", "area_name": "赞皇县", "area_lng": "114.38775", "area_lat": "37.66135", "area_full_name": "中国,河北省,石家庄市,赞皇县"}, {"area_id": "130130", "area_name": "无极县", "area_lng": "114.97509", "area_lat": "38.17653", "area_full_name": "中国,河北省,石家庄市,无极县"}, {"area_id": "130131", "area_name": "平山县", "area_lng": "114.186", "area_lat": "38.25994", "area_full_name": "中国,河北省,石家庄市,平山县"}, {"area_id": "130132", "area_name": "元氏县", "area_lng": "114.52539", "area_lat": "37.76668", "area_full_name": "中国,河北省,石家庄市,元氏县"}, {"area_id": "130133", "area_name": "赵县", "area_lng": "114.77612", "area_lat": "37.75628", "area_full_name": "中国,河北省,石家庄市,赵县"}, {"area_id": "130181", "area_name": "辛集市", "area_lng": "115.20626", "area_lat": "37.94079", "area_full_name": "中国,河北省,石家庄市,辛集市"}, {"area_id": "130183", "area_name": "晋州市", "area_lng": "115.04348", "area_lat": "38.03135", "area_full_name": "中国,河北省,石家庄市,晋州市"}, {"area_id": "130184", "area_name": "新乐市", "area_lng": "114.68985", "area_lat": "38.34417", "area_full_name": "中国,河北省,石家庄市,新乐市"}]}, {"id": "130200", "city": "唐山市", "lng": "118.175393", "lat": "39.635113", "city_code": "0315", "full_name": "中国,河北省,唐山市", "areas": [{"area_id": "130202", "area_name": "路南区", "area_lng": "118.15431", "area_lat": "39.62505", "area_full_name": "中国,河北省,唐山市,路南区"}, {"area_id": "130203", "area_name": "路北区", "area_lng": "118.20079", "area_lat": "39.62436", "area_full_name": "中国,河北省,唐山市,路北区"}, {"area_id": "130204", "area_name": "古冶区", "area_lng": "118.45803", "area_lat": "39.71993", "area_full_name": "中国,河北省,唐山市,古冶区"}, {"area_id": "130205", "area_name": "开平区", "area_lng": "118.26171", "area_lat": "39.67128", "area_full_name": "中国,河北省,唐山市,开平区"}, {"area_id": "130207", "area_name": "丰南区", "area_lng": "118.11282", "area_lat": "39.56483", "area_full_name": "中国,河北省,唐山市,丰南区"}, {"area_id": "130208", "area_name": "丰润区", "area_lng": "118.12976", "area_lat": "39.8244", "area_full_name": "中国,河北省,唐山市,丰润区"}, {"area_id": "130209", "area_name": "曹妃甸区", "area_lng": "118.460379", "area_lat": "39.273070", "area_full_name": "中国,河北省,唐山市,曹妃甸区"}, {"area_id": "130223", "area_name": "滦县", "area_lng": "118.70346", "area_lat": "39.74056", "area_full_name": "中国,河北省,唐山市,滦县"}, {"area_id": "130224", "area_name": "滦南县", "area_lng": "118.6741", "area_lat": "39.5039", "area_full_name": "中国,河北省,唐山市,滦南县"}, {"area_id": "130225", "area_name": "乐亭县", "area_lng": "118.9125", "area_lat": "39.42561", "area_full_name": "中国,河北省,唐山市,乐亭县"}, {"area_id": "130227", "area_name": "迁西县", "area_lng": "118.31616", "area_lat": "40.14587", "area_full_name": "中国,河北省,唐山市,迁西县"}, {"area_id": "130229", "area_name": "玉田县", "area_lng": "117.7388", "area_lat": "39.90049", "area_full_name": "中国,河北省,唐山市,玉田县"}, {"area_id": "130281", "area_name": "遵化市", "area_lng": "117.96444", "area_lat": "40.18741", "area_full_name": "中国,河北省,唐山市,遵化市"}, {"area_id": "130283", "area_name": "迁安市", "area_lng": "118.70068", "area_lat": "39.99833", "area_full_name": "中国,河北省,唐山市,迁安市"}]}, {"id": "130300", "city": "秦皇岛市", "lng": "119.586579", "lat": "39.942531", "city_code": "0335", "full_name": "中国,河北省,秦皇岛市", "areas": [{"area_id": "130302", "area_name": "海港区", "area_lng": "119.61046", "area_lat": "39.9345", "area_full_name": "中国,河北省,秦皇岛市,海港区"}, {"area_id": "130303", "area_name": "山海关区", "area_lng": "119.77563", "area_lat": "39.97869", "area_full_name": "中国,河北省,秦皇岛市,山海关区"}, {"area_id": "130304", "area_name": "北戴河区", "area_lng": "119.48388", "area_lat": "39.83408", "area_full_name": "中国,河北省,秦皇岛市,北戴河区"}, {"area_id": "130321", "area_name": "青龙满族自治县", "area_lng": "118.95242", "area_lat": "40.40743", "area_full_name": "中国,河北省,秦皇岛市,青龙满族自治县"}, {"area_id": "130322", "area_name": "昌黎县", "area_lng": "119.16595", "area_lat": "39.70884", "area_full_name": "中国,河北省,秦皇岛市,昌黎县"}, {"area_id": "130323", "area_name": "抚宁县", "area_lng": "119.24487", "area_lat": "39.87538", "area_full_name": "中国,河北省,秦皇岛市,抚宁县"}, {"area_id": "130324", "area_name": "卢龙县", "area_lng": "118.89288", "area_lat": "39.89176", "area_full_name": "中国,河北省,秦皇岛市,卢龙县"}]}, {"id": "130400", "city": "邯郸市", "lng": "114.490686", "lat": "36.612273", "city_code": "0310", "full_name": "中国,河北省,邯郸市", "areas": [{"area_id": "130402", "area_name": "邯山区", "area_lng": "114.48375", "area_lat": "36.60006", "area_full_name": "中国,河北省,邯郸市,邯山区"}, {"area_id": "130403", "area_name": "丛台区", "area_lng": "114.49343", "area_lat": "36.61847", "area_full_name": "中国,河北省,邯郸市,丛台区"}, {"area_id": "130404", "area_name": "复兴区", "area_lng": "114.45928", "area_lat": "36.61134", "area_full_name": "中国,河北省,邯郸市,复兴区"}, {"area_id": "130406", "area_name": "峰峰矿区", "area_lng": "114.21148", "area_lat": "36.41937", "area_full_name": "中国,河北省,邯郸市,峰峰矿区"}, {"area_id": "130421", "area_name": "邯郸县", "area_lng": "114.53103", "area_lat": "36.59385", "area_full_name": "中国,河北省,邯郸市,邯郸县"}, {"area_id": "130423", "area_name": "临漳县", "area_lng": "114.6195", "area_lat": "36.33461", "area_full_name": "中国,河北省,邯郸市,临漳县"}, {"area_id": "130424", "area_name": "成安县", "area_lng": "114.66995", "area_lat": "36.44411", "area_full_name": "中国,河北省,邯郸市,成安县"}, {"area_id": "130425", "area_name": "大名县", "area_lng": "115.15362", "area_lat": "36.27994", "area_full_name": "中国,河北省,邯郸市,大名县"}, {"area_id": "130426", "area_name": "涉县", "area_lng": "113.69183", "area_lat": "36.58072", "area_full_name": "中国,河北省,邯郸市,涉县"}, {"area_id": "130427", "area_name": "磁县", "area_lng": "114.37387", "area_lat": "36.37392", "area_full_name": "中国,河北省,邯郸市,磁县"}, {"area_id": "130428", "area_name": "肥乡县", "area_lng": "114.79998", "area_lat": "36.54807", "area_full_name": "中国,河北省,邯郸市,肥乡县"}, {"area_id": "130429", "area_name": "永年县", "area_lng": "114.48925", "area_lat": "36.78356", "area_full_name": "中国,河北省,邯郸市,永年县"}, {"area_id": "130430", "area_name": "邱县", "area_lng": "115.17407", "area_lat": "36.82082", "area_full_name": "中国,河北省,邯郸市,邱县"}, {"area_id": "130431", "area_name": "鸡泽县", "area_lng": "114.8742", "area_lat": "36.92374", "area_full_name": "中国,河北省,邯郸市,鸡泽县"}, {"area_id": "130432", "area_name": "广平县", "area_lng": "114.94653", "area_lat": "36.48046", "area_full_name": "中国,河北省,邯郸市,广平县"}, {"area_id": "130433", "area_name": "馆陶县", "area_lng": "115.29913", "area_lat": "36.53719", "area_full_name": "中国,河北省,邯郸市,馆陶县"}, {"area_id": "130434", "area_name": "魏县", "area_lng": "114.93518", "area_lat": "36.36171", "area_full_name": "中国,河北省,邯郸市,魏县"}, {"area_id": "130435", "area_name": "曲周县", "area_lng": "114.95196", "area_lat": "36.77671", "area_full_name": "中国,河北省,邯郸市,曲周县"}, {"area_id": "130481", "area_name": "武安市", "area_lng": "114.20153", "area_lat": "36.69281", "area_full_name": "中国,河北省,邯郸市,武安市"}]}, {"id": "130500", "city": "邢台市", "lng": "114.508851", "lat": "37.0682", "city_code": "0319", "full_name": "中国,河北省,邢台市", "areas": [{"area_id": "130502", "area_name": "桥东区", "area_lng": "114.50725", "area_lat": "37.06801", "area_full_name": "中国,河北省,邢台市,桥东区"}, {"area_id": "130503", "area_name": "桥西区", "area_lng": "114.46803", "area_lat": "37.05984", "area_full_name": "中国,河北省,邢台市,桥西区"}, {"area_id": "130521", "area_name": "邢台县", "area_lng": "114.56575", "area_lat": "37.0456", "area_full_name": "中国,河北省,邢台市,邢台县"}, {"area_id": "130522", "area_name": "临城县", "area_lng": "114.50387", "area_lat": "37.43977", "area_full_name": "中国,河北省,邢台市,临城县"}, {"area_id": "130523", "area_name": "内丘县", "area_lng": "114.51212", "area_lat": "37.28671", "area_full_name": "中国,河北省,邢台市,内丘县"}, {"area_id": "130524", "area_name": "柏乡县", "area_lng": "114.69332", "area_lat": "37.48242", "area_full_name": "中国,河北省,邢台市,柏乡县"}, {"area_id": "130525", "area_name": "隆尧县", "area_lng": "114.77615", "area_lat": "37.35351", "area_full_name": "中国,河北省,邢台市,隆尧县"}, {"area_id": "130526", "area_name": "任县", "area_lng": "114.6842", "area_lat": "37.12575", "area_full_name": "中国,河北省,邢台市,任县"}, {"area_id": "130527", "area_name": "南和县", "area_lng": "114.68371", "area_lat": "37.00488", "area_full_name": "中国,河北省,邢台市,南和县"}, {"area_id": "130528", "area_name": "宁晋县", "area_lng": "114.92117", "area_lat": "37.61696", "area_full_name": "中国,河北省,邢台市,宁晋县"}, {"area_id": "130529", "area_name": "巨鹿县", "area_lng": "115.03524", "area_lat": "37.21801", "area_full_name": "中国,河北省,邢台市,巨鹿县"}, {"area_id": "130530", "area_name": "新河县", "area_lng": "115.24987", "area_lat": "37.52718", "area_full_name": "中国,河北省,邢台市,新河县"}, {"area_id": "130531", "area_name": "广宗县", "area_lng": "115.14254", "area_lat": "37.0746", "area_full_name": "中国,河北省,邢台市,广宗县"}, {"area_id": "130532", "area_name": "平乡县", "area_lng": "115.03002", "area_lat": "37.06317", "area_full_name": "中国,河北省,邢台市,平乡县"}, {"area_id": "130533", "area_name": "威县", "area_lng": "115.2637", "area_lat": "36.9768", "area_full_name": "中国,河北省,邢台市,威县"}, {"area_id": "130534", "area_name": "清河县", "area_lng": "115.66479", "area_lat": "37.07122", "area_full_name": "中国,河北省,邢台市,清河县"}, {"area_id": "130535", "area_name": "临西县", "area_lng": "115.50097", "area_lat": "36.87078", "area_full_name": "中国,河北省,邢台市,临西县"}, {"area_id": "130581", "area_name": "南宫市", "area_lng": "115.39068", "area_lat": "37.35799", "area_full_name": "中国,河北省,邢台市,南宫市"}, {"area_id": "130582", "area_name": "沙河市", "area_lng": "114.4981", "area_lat": "36.8577", "area_full_name": "中国,河北省,邢台市,沙河市"}]}, {"id": "130600", "city": "保定市", "lng": "115.482331", "lat": "38.867657", "city_code": "0312", "full_name": "中国,河北省,保定市", "areas": [{"area_id": "130602", "area_name": "新市区", "area_lng": "115.4587", "area_lat": "38.87751", "area_full_name": "中国,河北省,保定市,新市区"}, {"area_id": "130603", "area_name": "北市区", "area_lng": "115.49715", "area_lat": "38.88322", "area_full_name": "中国,河北省,保定市,北市区"}, {"area_id": "130604", "area_name": "南市区", "area_lng": "115.52859", "area_lat": "38.85455", "area_full_name": "中国,河北省,保定市,南市区"}, {"area_id": "130621", "area_name": "满城县", "area_lng": "115.32296", "area_lat": "38.94972", "area_full_name": "中国,河北省,保定市,满城县"}, {"area_id": "130622", "area_name": "清苑县", "area_lng": "115.49267", "area_lat": "38.76709", "area_full_name": "中国,河北省,保定市,清苑县"}, {"area_id": "130623", "area_name": "涞水县", "area_lng": "115.71517", "area_lat": "39.39404", "area_full_name": "中国,河北省,保定市,涞水县"}, {"area_id": "130624", "area_name": "阜平县", "area_lng": "114.19683", "area_lat": "38.84763", "area_full_name": "中国,河北省,保定市,阜平县"}, {"area_id": "130625", "area_name": "徐水县", "area_lng": "115.65829", "area_lat": "39.02099", "area_full_name": "中国,河北省,保定市,徐水县"}, {"area_id": "130626", "area_name": "定兴县", "area_lng": "115.80786", "area_lat": "39.26312", "area_full_name": "中国,河北省,保定市,定兴县"}, {"area_id": "130627", "area_name": "唐县", "area_lng": "114.98516", "area_lat": "38.74513", "area_full_name": "中国,河北省,保定市,唐县"}, {"area_id": "130628", "area_name": "高阳县", "area_lng": "115.7788", "area_lat": "38.70003", "area_full_name": "中国,河北省,保定市,高阳县"}, {"area_id": "130629", "area_name": "容城县", "area_lng": "115.87158", "area_lat": "39.0535", "area_full_name": "中国,河北省,保定市,容城县"}, {"area_id": "130630", "area_name": "涞源县", "area_lng": "114.69128", "area_lat": "39.35388", "area_full_name": "中国,河北省,保定市,涞源县"}, {"area_id": "130631", "area_name": "望都县", "area_lng": "115.1567", "area_lat": "38.70996", "area_full_name": "中国,河北省,保定市,望都县"}, {"area_id": "130632", "area_name": "安新县", "area_lng": "115.93557", "area_lat": "38.93532", "area_full_name": "中国,河北省,保定市,安新县"}, {"area_id": "130633", "area_name": "易县", "area_lng": "115.4981", "area_lat": "39.34885", "area_full_name": "中国,河北省,保定市,易县"}, {"area_id": "130634", "area_name": "曲阳县", "area_lng": "114.70123", "area_lat": "38.62154", "area_full_name": "中国,河北省,保定市,曲阳县"}, {"area_id": "130635", "area_name": "蠡县", "area_lng": "115.57717", "area_lat": "38.48974", "area_full_name": "中国,河北省,保定市,蠡县"}, {"area_id": "130636", "area_name": "顺平县", "area_lng": "115.1347", "area_lat": "38.83854", "area_full_name": "中国,河北省,保定市,顺平县"}, {"area_id": "130637", "area_name": "博野县", "area_lng": "115.47033", "area_lat": "38.4564", "area_full_name": "中国,河北省,保定市,博野县"}, {"area_id": "130638", "area_name": "雄县", "area_lng": "116.10873", "area_lat": "38.99442", "area_full_name": "中国,河北省,保定市,雄县"}, {"area_id": "130681", "area_name": "涿州市", "area_lng": "115.98062", "area_lat": "39.48622", "area_full_name": "中国,河北省,保定市,涿州市"}, {"area_id": "130682", "area_name": "定州市", "area_lng": "114.9902", "area_lat": "38.51623", "area_full_name": "中国,河北省,保定市,定州市"}, {"area_id": "130683", "area_name": "安国市", "area_lng": "115.32321", "area_lat": "38.41391", "area_full_name": "中国,河北省,保定市,安国市"}, {"area_id": "130684", "area_name": "高碑店市", "area_lng": "115.87368", "area_lat": "39.32655", "area_full_name": "中国,河北省,保定市,高碑店市"}]}, {"id": "130700", "city": "张家口市", "lng": "114.884091", "lat": "40.811901", "city_code": "0313", "full_name": "中国,河北省,张家口市", "areas": [{"area_id": "130702", "area_name": "桥东区", "area_lng": "114.8943", "area_lat": "40.78844", "area_full_name": "中国,河北省,张家口市,桥东区"}, {"area_id": "130703", "area_name": "桥西区", "area_lng": "114.86962", "area_lat": "40.81945", "area_full_name": "中国,河北省,张家口市,桥西区"}, {"area_id": "130705", "area_name": "宣化区", "area_lng": "115.06543", "area_lat": "40.60957", "area_full_name": "中国,河北省,张家口市,宣化区"}, {"area_id": "130706", "area_name": "下花园区", "area_lng": "115.28744", "area_lat": "40.50236", "area_full_name": "中国,河北省,张家口市,下花园区"}, {"area_id": "130721", "area_name": "宣化县", "area_lng": "115.15497", "area_lat": "40.56618", "area_full_name": "中国,河北省,张家口市,宣化县"}, {"area_id": "130722", "area_name": "张北县", "area_lng": "114.71432", "area_lat": "41.15977", "area_full_name": "中国,河北省,张家口市,张北县"}, {"area_id": "130723", "area_name": "康保县", "area_lng": "114.60031", "area_lat": "41.85225", "area_full_name": "中国,河北省,张家口市,康保县"}, {"area_id": "130724", "area_name": "沽源县", "area_lng": "115.68859", "area_lat": "41.66959", "area_full_name": "中国,河北省,张家口市,沽源县"}, {"area_id": "130725", "area_name": "尚义县", "area_lng": "113.97134", "area_lat": "41.07782", "area_full_name": "中国,河北省,张家口市,尚义县"}, {"area_id": "130726", "area_name": "蔚县", "area_lng": "114.58892", "area_lat": "39.84067", "area_full_name": "中国,河北省,张家口市,蔚县"}, {"area_id": "130727", "area_name": "阳原县", "area_lng": "114.15051", "area_lat": "40.10361", "area_full_name": "中国,河北省,张家口市,阳原县"}, {"area_id": "130728", "area_name": "怀安县", "area_lng": "114.38559", "area_lat": "40.67425", "area_full_name": "中国,河北省,张家口市,怀安县"}, {"area_id": "130729", "area_name": "万全县", "area_lng": "114.7405", "area_lat": "40.76694", "area_full_name": "中国,河北省,张家口市,万全县"}, {"area_id": "130730", "area_name": "怀来县", "area_lng": "115.51773", "area_lat": "40.41536", "area_full_name": "中国,河北省,张家口市,怀来县"}, {"area_id": "130731", "area_name": "涿鹿县", "area_lng": "115.22403", "area_lat": "40.37636", "area_full_name": "中国,河北省,张家口市,涿鹿县"}, {"area_id": "130732", "area_name": "赤城县", "area_lng": "115.83187", "area_lat": "40.91438", "area_full_name": "中国,河北省,张家口市,赤城县"}, {"area_id": "130733", "area_name": "崇礼县", "area_lng": "115.27993", "area_lat": "40.97519", "area_full_name": "中国,河北省,张家口市,崇礼县"}]}, {"id": "130800", "city": "承德市", "lng": "117.939152", "lat": "40.976204", "city_code": "0314", "full_name": "中国,河北省,承德市", "areas": [{"area_id": "130802", "area_name": "双桥区", "area_lng": "117.9432", "area_lat": "40.97466", "area_full_name": "中国,河北省,承德市,双桥区"}, {"area_id": "130803", "area_name": "双滦区", "area_lng": "117.74487", "area_lat": "40.95375", "area_full_name": "中国,河北省,承德市,双滦区"}, {"area_id": "130804", "area_name": "鹰手营子矿区", "area_lng": "117.65985", "area_lat": "40.54744", "area_full_name": "中国,河北省,承德市,鹰手营子矿区"}, {"area_id": "130821", "area_name": "承德县", "area_lng": "118.17639", "area_lat": "40.76985", "area_full_name": "中国,河北省,承德市,承德县"}, {"area_id": "130822", "area_name": "兴隆县", "area_lng": "117.50073", "area_lat": "40.41709", "area_full_name": "中国,河北省,承德市,兴隆县"}, {"area_id": "130823", "area_name": "平泉县", "area_lng": "118.70196", "area_lat": "41.01839", "area_full_name": "中国,河北省,承德市,平泉县"}, {"area_id": "130824", "area_name": "滦平县", "area_lng": "117.33276", "area_lat": "40.94148", "area_full_name": "中国,河北省,承德市,滦平县"}, {"area_id": "130825", "area_name": "隆化县", "area_lng": "117.7297", "area_lat": "41.31412", "area_full_name": "中国,河北省,承德市,隆化县"}, {"area_id": "130826", "area_name": "丰宁满族自治县", "area_lng": "116.6492", "area_lat": "41.20481", "area_full_name": "中国,河北省,承德市,丰宁满族自治县"}, {"area_id": "130827", "area_name": "宽城满族自治县", "area_lng": "118.49176", "area_lat": "40.60829", "area_full_name": "中国,河北省,承德市,宽城满族自治县"}, {"area_id": "130828", "area_name": "围场满族蒙古族自治县", "area_lng": "117.7601", "area_lat": "41.94368", "area_full_name": "中国,河北省,承德市,围场满族蒙古族自治县"}]}, {"id": "130900", "city": "沧州市", "lng": "116.857461", "lat": "38.310582", "city_code": "0317", "full_name": "中国,河北省,沧州市", "areas": [{"area_id": "130902", "area_name": "新华区", "area_lng": "116.86643", "area_lat": "38.31438", "area_full_name": "中国,河北省,沧州市,新华区"}, {"area_id": "130903", "area_name": "运河区", "area_lng": "116.85706", "area_lat": "38.31352", "area_full_name": "中国,河北省,沧州市,运河区"}, {"area_id": "130921", "area_name": "沧县", "area_lng": "116.87817", "area_lat": "38.29361", "area_full_name": "中国,河北省,沧州市,沧县"}, {"area_id": "130922", "area_name": "青县", "area_lng": "116.80316", "area_lat": "38.58345", "area_full_name": "中国,河北省,沧州市,青县"}, {"area_id": "130923", "area_name": "东光县", "area_lng": "116.53668", "area_lat": "37.8857", "area_full_name": "中国,河北省,沧州市,东光县"}, {"area_id": "130924", "area_name": "海兴县", "area_lng": "117.49758", "area_lat": "38.13958", "area_full_name": "中国,河北省,沧州市,海兴县"}, {"area_id": "130925", "area_name": "盐山县", "area_lng": "117.23092", "area_lat": "38.05647", "area_full_name": "中国,河北省,沧州市,盐山县"}, {"area_id": "130926", "area_name": "肃宁县", "area_lng": "115.82971", "area_lat": "38.42272", "area_full_name": "中国,河北省,沧州市,肃宁县"}, {"area_id": "130927", "area_name": "南皮县", "area_lng": "116.70224", "area_lat": "38.04109", "area_full_name": "中国,河北省,沧州市,南皮县"}, {"area_id": "130928", "area_name": "吴桥县", "area_lng": "116.3847", "area_lat": "37.62546", "area_full_name": "中国,河北省,沧州市,吴桥县"}, {"area_id": "130929", "area_name": "献县", "area_lng": "116.12695", "area_lat": "38.19228", "area_full_name": "中国,河北省,沧州市,献县"}, {"area_id": "130930", "area_name": "孟村回族自治县", "area_lng": "117.10412", "area_lat": "38.05338", "area_full_name": "中国,河北省,沧州市,孟村回族自治县"}, {"area_id": "130981", "area_name": "泊头市", "area_lng": "116.57824", "area_lat": "38.08359", "area_full_name": "中国,河北省,沧州市,泊头市"}, {"area_id": "130982", "area_name": "任丘市", "area_lng": "116.1033", "area_lat": "38.71124", "area_full_name": "中国,河北省,沧州市,任丘市"}, {"area_id": "130983", "area_name": "黄骅市", "area_lng": "117.33883", "area_lat": "38.3706", "area_full_name": "中国,河北省,沧州市,黄骅市"}, {"area_id": "130984", "area_name": "河间市", "area_lng": "116.0993", "area_lat": "38.44549", "area_full_name": "中国,河北省,沧州市,河间市"}]}, {"id": "131000", "city": "廊坊市", "lng": "116.713873", "lat": "39.529244", "city_code": "0316", "full_name": "中国,河北省,廊坊市", "areas": [{"area_id": "131002", "area_name": "安次区", "area_lng": "116.70308", "area_lat": "39.52057", "area_full_name": "中国,河北省,廊坊市,安次区"}, {"area_id": "131003", "area_name": "广阳区", "area_lng": "116.71069", "area_lat": "39.52278", "area_full_name": "中国,河北省,廊坊市,广阳区"}, {"area_id": "131022", "area_name": "固安县", "area_lng": "116.29916", "area_lat": "39.43833", "area_full_name": "中国,河北省,廊坊市,固安县"}, {"area_id": "131023", "area_name": "永清县", "area_lng": "116.50091", "area_lat": "39.32069", "area_full_name": "中国,河北省,廊坊市,永清县"}, {"area_id": "131024", "area_name": "香河县", "area_lng": "117.00634", "area_lat": "39.76133", "area_full_name": "中国,河北省,廊坊市,香河县"}, {"area_id": "131025", "area_name": "大城县", "area_lng": "116.65353", "area_lat": "38.70534", "area_full_name": "中国,河北省,廊坊市,大城县"}, {"area_id": "131026", "area_name": "文安县", "area_lng": "116.45846", "area_lat": "38.87325", "area_full_name": "中国,河北省,廊坊市,文安县"}, {"area_id": "131028", "area_name": "大厂回族自治县", "area_lng": "116.98916", "area_lat": "39.88649", "area_full_name": "中国,河北省,廊坊市,大厂回族自治县"}, {"area_id": "131081", "area_name": "霸州市", "area_lng": "116.39154", "area_lat": "39.12569", "area_full_name": "中国,河北省,廊坊市,霸州市"}, {"area_id": "131082", "area_name": "三河市", "area_lng": "117.07229", "area_lat": "39.98358", "area_full_name": "中国,河北省,廊坊市,三河市"}]}, {"id": "131100", "city": "衡水市", "lng": "115.665993", "lat": "37.735097", "city_code": "0318", "full_name": "中国,河北省,衡水市", "areas": [{"area_id": "131102", "area_name": "桃城区", "area_lng": "115.67529", "area_lat": "37.73499", "area_full_name": "中国,河北省,衡水市,桃城区"}, {"area_id": "131121", "area_name": "枣强县", "area_lng": "115.72576", "area_lat": "37.51027", "area_full_name": "中国,河北省,衡水市,枣强县"}, {"area_id": "131122", "area_name": "武邑县", "area_lng": "115.88748", "area_lat": "37.80181", "area_full_name": "中国,河北省,衡水市,武邑县"}, {"area_id": "131123", "area_name": "武强县", "area_lng": "115.98226", "area_lat": "38.04138", "area_full_name": "中国,河北省,衡水市,武强县"}, {"area_id": "131124", "area_name": "饶阳县", "area_lng": "115.72558", "area_lat": "38.23529", "area_full_name": "中国,河北省,衡水市,饶阳县"}, {"area_id": "131125", "area_name": "安平县", "area_lng": "115.51876", "area_lat": "38.23388", "area_full_name": "中国,河北省,衡水市,安平县"}, {"area_id": "131126", "area_name": "故城县", "area_lng": "115.97076", "area_lat": "37.34773", "area_full_name": "中国,河北省,衡水市,故城县"}, {"area_id": "131127", "area_name": "景县", "area_lng": "116.26904", "area_lat": "37.6926", "area_full_name": "中国,河北省,衡水市,景县"}, {"area_id": "131128", "area_name": "阜城县", "area_lng": "116.14431", "area_lat": "37.86881", "area_full_name": "中国,河北省,衡水市,阜城县"}, {"area_id": "131181", "area_name": "冀州市", "area_lng": "115.57934", "area_lat": "37.55082", "area_full_name": "中国,河北省,衡水市,冀州市"}, {"area_id": "131182", "area_name": "深州市", "area_lng": "115.55993", "area_lat": "38.00109", "area_full_name": "中国,河北省,衡水市,深州市"}]}, {"id": "140100", "city": "太原市", "lng": "112.549248", "lat": "37.857014", "city_code": "0351", "full_name": "中国,山西省,太原市", "areas": [{"area_id": "140105", "area_name": "小店区", "area_lng": "112.56878", "area_lat": "37.73565", "area_full_name": "中国,山西省,太原市,小店区"}, {"area_id": "140106", "area_name": "迎泽区", "area_lng": "112.56338", "area_lat": "37.86326", "area_full_name": "中国,山西省,太原市,迎泽区"}, {"area_id": "140107", "area_name": "杏花岭区", "area_lng": "112.56237", "area_lat": "37.88429", "area_full_name": "中国,山西省,太原市,杏花岭区"}, {"area_id": "140108", "area_name": "尖草坪区", "area_lng": "112.48709", "area_lat": "37.94193", "area_full_name": "中国,山西省,太原市,尖草坪区"}, {"area_id": "140109", "area_name": "万柏林区", "area_lng": "112.51553", "area_lat": "37.85923", "area_full_name": "中国,山西省,太原市,万柏林区"}, {"area_id": "140110", "area_name": "晋源区", "area_lng": "112.47985", "area_lat": "37.72479", "area_full_name": "中国,山西省,太原市,晋源区"}, {"area_id": "140121", "area_name": "清徐县", "area_lng": "112.35888", "area_lat": "37.60758", "area_full_name": "中国,山西省,太原市,清徐县"}, {"area_id": "140122", "area_name": "阳曲县", "area_lng": "112.67861", "area_lat": "38.05989", "area_full_name": "中国,山西省,太原市,阳曲县"}, {"area_id": "140123", "area_name": "娄烦县", "area_lng": "111.79473", "area_lat": "38.06689", "area_full_name": "中国,山西省,太原市,娄烦县"}, {"area_id": "140181", "area_name": "古交市", "area_lng": "112.16918", "area_lat": "37.90983", "area_full_name": "中国,山西省,太原市,古交市"}]}, {"id": "140200", "city": "大同市", "lng": "113.295259", "lat": "40.09031", "city_code": "0352", "full_name": "中国,山西省,大同市", "areas": [{"area_id": "140202", "area_name": "城区", "area_lng": "113.298", "area_lat": "40.07566", "area_full_name": "中国,山西省,大同市,城区"}, {"area_id": "140203", "area_name": "矿区", "area_lng": "113.1772", "area_lat": "40.03685", "area_full_name": "中国,山西省,大同市,矿区"}, {"area_id": "140211", "area_name": "南郊区", "area_lng": "113.14947", "area_lat": "40.00539", "area_full_name": "中国,山西省,大同市,南郊区"}, {"area_id": "140212", "area_name": "新荣区", "area_lng": "113.13504", "area_lat": "40.25618", "area_full_name": "中国,山西省,大同市,新荣区"}, {"area_id": "140221", "area_name": "阳高县", "area_lng": "113.75012", "area_lat": "40.36256", "area_full_name": "中国,山西省,大同市,阳高县"}, {"area_id": "140222", "area_name": "天镇县", "area_lng": "114.0931", "area_lat": "40.42299", "area_full_name": "中国,山西省,大同市,天镇县"}, {"area_id": "140223", "area_name": "广灵县", "area_lng": "114.28204", "area_lat": "39.76082", "area_full_name": "中国,山西省,大同市,广灵县"}, {"area_id": "140224", "area_name": "灵丘县", "area_lng": "114.23672", "area_lat": "39.44043", "area_full_name": "中国,山西省,大同市,灵丘县"}, {"area_id": "140225", "area_name": "浑源县", "area_lng": "113.69552", "area_lat": "39.69962", "area_full_name": "中国,山西省,大同市,浑源县"}, {"area_id": "140226", "area_name": "左云县", "area_lng": "112.70266", "area_lat": "40.01336", "area_full_name": "中国,山西省,大同市,左云县"}, {"area_id": "140227", "area_name": "大同县", "area_lng": "113.61212", "area_lat": "40.04012", "area_full_name": "中国,山西省,大同市,大同县"}]}, {"id": "140300", "city": "阳泉市", "lng": "113.583285", "lat": "37.861188", "city_code": "0353", "full_name": "中国,山西省,阳泉市", "areas": [{"area_id": "140302", "area_name": "城区", "area_lng": "113.60069", "area_lat": "37.8474", "area_full_name": "中国,山西省,阳泉市,城区"}, {"area_id": "140303", "area_name": "矿区", "area_lng": "113.55677", "area_lat": "37.86895", "area_full_name": "中国,山西省,阳泉市,矿区"}, {"area_id": "140311", "area_name": "郊区", "area_lng": "113.58539", "area_lat": "37.94139", "area_full_name": "中国,山西省,阳泉市,郊区"}, {"area_id": "140321", "area_name": "平定县", "area_lng": "113.65789", "area_lat": "37.78601", "area_full_name": "中国,山西省,阳泉市,平定县"}, {"area_id": "140322", "area_name": "盂县", "area_lng": "113.41235", "area_lat": "38.08579", "area_full_name": "中国,山西省,阳泉市,盂县"}]}, {"id": "140400", "city": "长治市", "lng": "113.113556", "lat": "36.191112", "city_code": "0355", "full_name": "中国,山西省,长治市", "areas": [{"area_id": "140402", "area_name": "城区", "area_lng": "113.12308", "area_lat": "36.20351", "area_full_name": "中国,山西省,长治市,城区"}, {"area_id": "140411", "area_name": "郊区", "area_lng": "113.12653", "area_lat": "36.19918", "area_full_name": "中国,山西省,长治市,郊区"}, {"area_id": "140421", "area_name": "长治县", "area_lng": "113.04791", "area_lat": "36.04722", "area_full_name": "中国,山西省,长治市,长治县"}, {"area_id": "140423", "area_name": "襄垣县", "area_lng": "113.05157", "area_lat": "36.53527", "area_full_name": "中国,山西省,长治市,襄垣县"}, {"area_id": "140424", "area_name": "屯留县", "area_lng": "112.89196", "area_lat": "36.31579", "area_full_name": "中国,山西省,长治市,屯留县"}, {"area_id": "140425", "area_name": "平顺县", "area_lng": "113.43603", "area_lat": "36.20005", "area_full_name": "中国,山西省,长治市,平顺县"}, {"area_id": "140426", "area_name": "黎城县", "area_lng": "113.38766", "area_lat": "36.50301", "area_full_name": "中国,山西省,长治市,黎城县"}, {"area_id": "140427", "area_name": "壶关县", "area_lng": "113.207", "area_lat": "36.11301", "area_full_name": "中国,山西省,长治市,壶关县"}, {"area_id": "140428", "area_name": "长子县", "area_lng": "112.87731", "area_lat": "36.12125", "area_full_name": "中国,山西省,长治市,长子县"}, {"area_id": "140429", "area_name": "武乡县", "area_lng": "112.86343", "area_lat": "36.83687", "area_full_name": "中国,山西省,长治市,武乡县"}, {"area_id": "140430", "area_name": "沁县", "area_lng": "112.69863", "area_lat": "36.75628", "area_full_name": "中国,山西省,长治市,沁县"}, {"area_id": "140431", "area_name": "沁源县", "area_lng": "112.33758", "area_lat": "36.50008", "area_full_name": "中国,山西省,长治市,沁源县"}, {"area_id": "140481", "area_name": "潞城市", "area_lng": "113.22888", "area_lat": "36.33414", "area_full_name": "中国,山西省,长治市,潞城市"}]}, {"id": "140500", "city": "晋城市", "lng": "112.851274", "lat": "35.497553", "city_code": "0356", "full_name": "中国,山西省,晋城市", "areas": [{"area_id": "140502", "area_name": "城区", "area_lng": "112.85319", "area_lat": "35.50175", "area_full_name": "中国,山西省,晋城市,城区"}, {"area_id": "140521", "area_name": "沁水县", "area_lng": "112.1871", "area_lat": "35.69102", "area_full_name": "中国,山西省,晋城市,沁水县"}, {"area_id": "140522", "area_name": "阳城县", "area_lng": "112.41485", "area_lat": "35.48614", "area_full_name": "中国,山西省,晋城市,阳城县"}, {"area_id": "140524", "area_name": "陵川县", "area_lng": "113.2806", "area_lat": "35.77532", "area_full_name": "中国,山西省,晋城市,陵川县"}, {"area_id": "140525", "area_name": "泽州县", "area_lng": "112.83947", "area_lat": "35.50789", "area_full_name": "中国,山西省,晋城市,泽州县"}, {"area_id": "140581", "area_name": "高平市", "area_lng": "112.92288", "area_lat": "35.79705", "area_full_name": "中国,山西省,晋城市,高平市"}]}, {"id": "140600", "city": "朔州市", "lng": "112.433387", "lat": "39.331261", "city_code": "0349", "full_name": "中国,山西省,朔州市", "areas": [{"area_id": "140602", "area_name": "朔城区", "area_lng": "112.43189", "area_lat": "39.31982", "area_full_name": "中国,山西省,朔州市,朔城区"}, {"area_id": "140603", "area_name": "平鲁区", "area_lng": "112.28833", "area_lat": "39.51155", "area_full_name": "中国,山西省,朔州市,平鲁区"}, {"area_id": "140621", "area_name": "山阴县", "area_lng": "112.81662", "area_lat": "39.52697", "area_full_name": "中国,山西省,朔州市,山阴县"}, {"area_id": "140622", "area_name": "应县", "area_lng": "113.19052", "area_lat": "39.55279", "area_full_name": "中国,山西省,朔州市,应县"}, {"area_id": "140623", "area_name": "右玉县", "area_lng": "112.46902", "area_lat": "39.99011", "area_full_name": "中国,山西省,朔州市,右玉县"}, {"area_id": "140624", "area_name": "怀仁县", "area_lng": "113.10009", "area_lat": "39.82806", "area_full_name": "中国,山西省,朔州市,怀仁县"}]}, {"id": "140700", "city": "晋中市", "lng": "112.736465", "lat": "37.696495", "city_code": "0354", "full_name": "中国,山西省,晋中市", "areas": [{"area_id": "140702", "area_name": "榆次区", "area_lng": "112.70788", "area_lat": "37.6978", "area_full_name": "中国,山西省,晋中市,榆次区"}, {"area_id": "140721", "area_name": "榆社县", "area_lng": "112.97558", "area_lat": "37.0721", "area_full_name": "中国,山西省,晋中市,榆社县"}, {"area_id": "140722", "area_name": "左权县", "area_lng": "113.37918", "area_lat": "37.08235", "area_full_name": "中国,山西省,晋中市,左权县"}, {"area_id": "140723", "area_name": "和顺县", "area_lng": "113.56988", "area_lat": "37.32963", "area_full_name": "中国,山西省,晋中市,和顺县"}, {"area_id": "140724", "area_name": "昔阳县", "area_lng": "113.70517", "area_lat": "37.61863", "area_full_name": "中国,山西省,晋中市,昔阳县"}, {"area_id": "140725", "area_name": "寿阳县", "area_lng": "113.17495", "area_lat": "37.88899", "area_full_name": "中国,山西省,晋中市,寿阳县"}, {"area_id": "140726", "area_name": "太谷县", "area_lng": "112.55246", "area_lat": "37.42161", "area_full_name": "中国,山西省,晋中市,太谷县"}, {"area_id": "140727", "area_name": "祁县", "area_lng": "112.33358", "area_lat": "37.3579", "area_full_name": "中国,山西省,晋中市,祁县"}, {"area_id": "140728", "area_name": "平遥县", "area_lng": "112.17553", "area_lat": "37.1892", "area_full_name": "中国,山西省,晋中市,平遥县"}, {"area_id": "140729", "area_name": "灵石县", "area_lng": "111.7774", "area_lat": "36.84814", "area_full_name": "中国,山西省,晋中市,灵石县"}, {"area_id": "140781", "area_name": "介休市", "area_lng": "111.91824", "area_lat": "37.02771", "area_full_name": "中国,山西省,晋中市,介休市"}]}, {"id": "140800", "city": "运城市", "lng": "111.003957", "lat": "35.022778", "city_code": "0359", "full_name": "中国,山西省,运城市", "areas": [{"area_id": "140802", "area_name": "盐湖区", "area_lng": "110.99827", "area_lat": "35.0151", "area_full_name": "中国,山西省,运城市,盐湖区"}, {"area_id": "140821", "area_name": "临猗县", "area_lng": "110.77432", "area_lat": "35.14455", "area_full_name": "中国,山西省,运城市,临猗县"}, {"area_id": "140822", "area_name": "万荣县", "area_lng": "110.83657", "area_lat": "35.41556", "area_full_name": "中国,山西省,运城市,万荣县"}, {"area_id": "140823", "area_name": "闻喜县", "area_lng": "111.22265", "area_lat": "35.35553", "area_full_name": "中国,山西省,运城市,闻喜县"}, {"area_id": "140824", "area_name": "稷山县", "area_lng": "110.97924", "area_lat": "35.59993", "area_full_name": "中国,山西省,运城市,稷山县"}, {"area_id": "140825", "area_name": "新绛县", "area_lng": "111.22509", "area_lat": "35.61566", "area_full_name": "中国,山西省,运城市,新绛县"}, {"area_id": "140826", "area_name": "绛县", "area_lng": "111.56668", "area_lat": "35.49096", "area_full_name": "中国,山西省,运城市,绛县"}, {"area_id": "140827", "area_name": "垣曲县", "area_lng": "111.67166", "area_lat": "35.29923", "area_full_name": "中国,山西省,运城市,垣曲县"}, {"area_id": "140828", "area_name": "夏县", "area_lng": "111.21966", "area_lat": "35.14121", "area_full_name": "中国,山西省,运城市,夏县"}, {"area_id": "140829", "area_name": "平陆县", "area_lng": "111.21704", "area_lat": "34.83772", "area_full_name": "中国,山西省,运城市,平陆县"}, {"area_id": "140830", "area_name": "芮城县", "area_lng": "110.69455", "area_lat": "34.69384", "area_full_name": "中国,山西省,运城市,芮城县"}, {"area_id": "140881", "area_name": "永济市", "area_lng": "110.44537", "area_lat": "34.86556", "area_full_name": "中国,山西省,运城市,永济市"}, {"area_id": "140882", "area_name": "河津市", "area_lng": "110.7116", "area_lat": "35.59478", "area_full_name": "中国,山西省,运城市,河津市"}]}, {"id": "140900", "city": "忻州市", "lng": "112.733538", "lat": "38.41769", "city_code": "0350", "full_name": "中国,山西省,忻州市", "areas": [{"area_id": "140902", "area_name": "忻府区", "area_lng": "112.74603", "area_lat": "38.40414", "area_full_name": "中国,山西省,忻州市,忻府区"}, {"area_id": "140921", "area_name": "定襄县", "area_lng": "112.95733", "area_lat": "38.47387", "area_full_name": "中国,山西省,忻州市,定襄县"}, {"area_id": "140922", "area_name": "五台县", "area_lng": "113.25256", "area_lat": "38.72774", "area_full_name": "中国,山西省,忻州市,五台县"}, {"area_id": "140923", "area_name": "代县", "area_lng": "112.95913", "area_lat": "39.06717", "area_full_name": "中国,山西省,忻州市,代县"}, {"area_id": "140924", "area_name": "繁峙县", "area_lng": "113.26303", "area_lat": "39.18886", "area_full_name": "中国,山西省,忻州市,繁峙县"}, {"area_id": "140925", "area_name": "宁武县", "area_lng": "112.30423", "area_lat": "39.00211", "area_full_name": "中国,山西省,忻州市,宁武县"}, {"area_id": "140926", "area_name": "静乐县", "area_lng": "111.94158", "area_lat": "38.3602", "area_full_name": "中国,山西省,忻州市,静乐县"}, {"area_id": "140927", "area_name": "神池县", "area_lng": "112.20541", "area_lat": "39.09", "area_full_name": "中国,山西省,忻州市,神池县"}, {"area_id": "140928", "area_name": "五寨县", "area_lng": "111.8489", "area_lat": "38.90757", "area_full_name": "中国,山西省,忻州市,五寨县"}, {"area_id": "140929", "area_name": "岢岚县", "area_lng": "111.57388", "area_lat": "38.70452", "area_full_name": "中国,山西省,忻州市,岢岚县"}, {"area_id": "140930", "area_name": "河曲县", "area_lng": "111.13821", "area_lat": "39.38439", "area_full_name": "中国,山西省,忻州市,河曲县"}, {"area_id": "140931", "area_name": "保德县", "area_lng": "111.08656", "area_lat": "39.02248", "area_full_name": "中国,山西省,忻州市,保德县"}, {"area_id": "140932", "area_name": "偏关县", "area_lng": "111.50863", "area_lat": "39.43609", "area_full_name": "中国,山西省,忻州市,偏关县"}, {"area_id": "140981", "area_name": "原平市", "area_lng": "112.70584", "area_lat": "38.73181", "area_full_name": "中国,山西省,忻州市,原平市"}]}, {"id": "141000", "city": "临汾市", "lng": "111.517973", "lat": "36.08415", "city_code": "0357", "full_name": "中国,山西省,临汾市", "areas": [{"area_id": "141002", "area_name": "尧都区", "area_lng": "111.5787", "area_lat": "36.08298", "area_full_name": "中国,山西省,临汾市,尧都区"}, {"area_id": "141021", "area_name": "曲沃县", "area_lng": "111.47525", "area_lat": "35.64119", "area_full_name": "中国,山西省,临汾市,曲沃县"}, {"area_id": "141022", "area_name": "翼城县", "area_lng": "111.7181", "area_lat": "35.73881", "area_full_name": "中国,山西省,临汾市,翼城县"}, {"area_id": "141023", "area_name": "襄汾县", "area_lng": "111.44204", "area_lat": "35.87711", "area_full_name": "中国,山西省,临汾市,襄汾县"}, {"area_id": "141024", "area_name": "洪洞县", "area_lng": "111.67501", "area_lat": "36.25425", "area_full_name": "中国,山西省,临汾市,洪洞县"}, {"area_id": "141025", "area_name": "古县", "area_lng": "111.92041", "area_lat": "36.26688", "area_full_name": "中国,山西省,临汾市,古县"}, {"area_id": "141026", "area_name": "安泽县", "area_lng": "112.24981", "area_lat": "36.14803", "area_full_name": "中国,山西省,临汾市,安泽县"}, {"area_id": "141027", "area_name": "浮山县", "area_lng": "111.84744", "area_lat": "35.96854", "area_full_name": "中国,山西省,临汾市,浮山县"}, {"area_id": "141028", "area_name": "吉县", "area_lng": "110.68148", "area_lat": "36.09873", "area_full_name": "中国,山西省,临汾市,吉县"}, {"area_id": "141029", "area_name": "乡宁县", "area_lng": "110.84652", "area_lat": "35.97072", "area_full_name": "中国,山西省,临汾市,乡宁县"}, {"area_id": "141030", "area_name": "大宁县", "area_lng": "110.75216", "area_lat": "36.46624", "area_full_name": "中国,山西省,临汾市,大宁县"}, {"area_id": "141031", "area_name": "隰县", "area_lng": "110.93881", "area_lat": "36.69258", "area_full_name": "中国,山西省,临汾市,隰县"}, {"area_id": "141032", "area_name": "永和县", "area_lng": "110.63168", "area_lat": "36.7584", "area_full_name": "中国,山西省,临汾市,永和县"}, {"area_id": "141033", "area_name": "蒲县", "area_lng": "111.09674", "area_lat": "36.41243", "area_full_name": "中国,山西省,临汾市,蒲县"}, {"area_id": "141034", "area_name": "汾西县", "area_lng": "111.56811", "area_lat": "36.65063", "area_full_name": "中国,山西省,临汾市,汾西县"}, {"area_id": "141081", "area_name": "侯马市", "area_lng": "111.37207", "area_lat": "35.61903", "area_full_name": "中国,山西省,临汾市,侯马市"}, {"area_id": "141082", "area_name": "霍州市", "area_lng": "111.755", "area_lat": "36.5638", "area_full_name": "中国,山西省,临汾市,霍州市"}]}, {"id": "141100", "city": "吕梁市", "lng": "111.134335", "lat": "37.524366", "city_code": "0358", "full_name": "中国,山西省,吕梁市", "areas": [{"area_id": "141102", "area_name": "离石区", "area_lng": "111.15059", "area_lat": "37.5177", "area_full_name": "中国,山西省,吕梁市,离石区"}, {"area_id": "141121", "area_name": "文水县", "area_lng": "112.02829", "area_lat": "37.43841", "area_full_name": "中国,山西省,吕梁市,文水县"}, {"area_id": "141122", "area_name": "交城县", "area_lng": "112.1585", "area_lat": "37.5512", "area_full_name": "中国,山西省,吕梁市,交城县"}, {"area_id": "141123", "area_name": "兴县", "area_lng": "111.12692", "area_lat": "38.46321", "area_full_name": "中国,山西省,吕梁市,兴县"}, {"area_id": "141124", "area_name": "临县", "area_lng": "110.99282", "area_lat": "37.95271", "area_full_name": "中国,山西省,吕梁市,临县"}, {"area_id": "141125", "area_name": "柳林县", "area_lng": "110.88922", "area_lat": "37.42932", "area_full_name": "中国,山西省,吕梁市,柳林县"}, {"area_id": "141126", "area_name": "石楼县", "area_lng": "110.8352", "area_lat": "36.99731", "area_full_name": "中国,山西省,吕梁市,石楼县"}, {"area_id": "141127", "area_name": "岚县", "area_lng": "111.67627", "area_lat": "38.27874", "area_full_name": "中国,山西省,吕梁市,岚县"}, {"area_id": "141128", "area_name": "方山县", "area_lng": "111.24011", "area_lat": "37.88979", "area_full_name": "中国,山西省,吕梁市,方山县"}, {"area_id": "141129", "area_name": "中阳县", "area_lng": "111.1795", "area_lat": "37.35715", "area_full_name": "中国,山西省,吕梁市,中阳县"}, {"area_id": "141130", "area_name": "交口县", "area_lng": "111.18103", "area_lat": "36.98213", "area_full_name": "中国,山西省,吕梁市,交口县"}, {"area_id": "141181", "area_name": "孝义市", "area_lng": "111.77362", "area_lat": "37.14414", "area_full_name": "中国,山西省,吕梁市,孝义市"}, {"area_id": "141182", "area_name": "汾阳市", "area_lng": "111.7882", "area_lat": "37.26605", "area_full_name": "中国,山西省,吕梁市,汾阳市"}]}, {"id": "150100", "city": "呼和浩特市", "lng": "111.670801", "lat": "40.818311", "city_code": "0471", "full_name": "中国,内蒙古自治区,呼和浩特市", "areas": [{"area_id": "150102", "area_name": "新城区", "area_lng": "111.66554", "area_lat": "40.85828", "area_full_name": "中国,内蒙古自治区,呼和浩特市,新城区"}, {"area_id": "150103", "area_name": "回民区", "area_lng": "111.62402", "area_lat": "40.80827", "area_full_name": "中国,内蒙古自治区,呼和浩特市,回民区"}, {"area_id": "150104", "area_name": "玉泉区", "area_lng": "111.67456", "area_lat": "40.75227", "area_full_name": "中国,内蒙古自治区,呼和浩特市,玉泉区"}, {"area_id": "150105", "area_name": "赛罕区", "area_lng": "111.70224", "area_lat": "40.79207", "area_full_name": "中国,内蒙古自治区,呼和浩特市,赛罕区"}, {"area_id": "150121", "area_name": "土默特左旗", "area_lng": "111.14898", "area_lat": "40.72229", "area_full_name": "中国,内蒙古自治区,呼和浩特市,土默特左旗"}, {"area_id": "150122", "area_name": "托克托县", "area_lng": "111.19101", "area_lat": "40.27492", "area_full_name": "中国,内蒙古自治区,呼和浩特市,托克托县"}, {"area_id": "150123", "area_name": "和林格尔县", "area_lng": "111.82205", "area_lat": "40.37892", "area_full_name": "中国,内蒙古自治区,呼和浩特市,和林格尔县"}, {"area_id": "150124", "area_name": "清水河县", "area_lng": "111.68316", "area_lat": "39.9097", "area_full_name": "中国,内蒙古自治区,呼和浩特市,清水河县"}, {"area_id": "150125", "area_name": "武川县", "area_lng": "111.45785", "area_lat": "41.09289", "area_full_name": "中国,内蒙古自治区,呼和浩特市,武川县"}]}, {"id": "150200", "city": "包头市", "lng": "109.840405", "lat": "40.658168", "city_code": "0472", "full_name": "中国,内蒙古自治区,包头市", "areas": [{"area_id": "150202", "area_name": "东河区", "area_lng": "110.0462", "area_lat": "40.58237", "area_full_name": "中国,内蒙古自治区,包头市,东河区"}, {"area_id": "150203", "area_name": "昆都仑区", "area_lng": "109.83862", "area_lat": "40.64175", "area_full_name": "中国,内蒙古自治区,包头市,昆都仑区"}, {"area_id": "150204", "area_name": "青山区", "area_lng": "109.90131", "area_lat": "40.64329", "area_full_name": "中国,内蒙古自治区,包头市,青山区"}, {"area_id": "150205", "area_name": "石拐区", "area_lng": "110.27322", "area_lat": "40.67297", "area_full_name": "中国,内蒙古自治区,包头市,石拐区"}, {"area_id": "150206", "area_name": "白云鄂博矿区", "area_lng": "109.97367", "area_lat": "41.76968", "area_full_name": "中国,内蒙古自治区,包头市,白云鄂博矿区"}, {"area_id": "150207", "area_name": "九原区", "area_lng": "109.96496", "area_lat": "40.60554", "area_full_name": "中国,内蒙古自治区,包头市,九原区"}, {"area_id": "150221", "area_name": "土默特右旗", "area_lng": "110.52417", "area_lat": "40.5688", "area_full_name": "中国,内蒙古自治区,包头市,土默特右旗"}, {"area_id": "150222", "area_name": "固阳县", "area_lng": "110.06372", "area_lat": "41.01851", "area_full_name": "中国,内蒙古自治区,包头市,固阳县"}, {"area_id": "150223", "area_name": "达尔罕茂明安联合旗", "area_lng": "110.43258", "area_lat": "41.69875", "area_full_name": "中国,内蒙古自治区,包头市,达尔罕茂明安联合旗"}]}, {"id": "150300", "city": "乌海市", "lng": "106.825563", "lat": "39.673734", "city_code": "0473", "full_name": "中国,内蒙古自治区,乌海市", "areas": [{"area_id": "150302", "area_name": "海勃湾区", "area_lng": "106.8222", "area_lat": "39.66955", "area_full_name": "中国,内蒙古自治区,乌海市,海勃湾区"}, {"area_id": "150303", "area_name": "海南区", "area_lng": "106.88656", "area_lat": "39.44128", "area_full_name": "中国,内蒙古自治区,乌海市,海南区"}, {"area_id": "150304", "area_name": "乌达区", "area_lng": "106.72723", "area_lat": "39.505", "area_full_name": "中国,内蒙古自治区,乌海市,乌达区"}]}, {"id": "150400", "city": "赤峰市", "lng": "118.956806", "lat": "42.275317", "city_code": "0476", "full_name": "中国,内蒙古自治区,赤峰市", "areas": [{"area_id": "150402", "area_name": "红山区", "area_lng": "118.95755", "area_lat": "42.24312", "area_full_name": "中国,内蒙古自治区,赤峰市,红山区"}, {"area_id": "150403", "area_name": "元宝山区", "area_lng": "119.28921", "area_lat": "42.04005", "area_full_name": "中国,内蒙古自治区,赤峰市,元宝山区"}, {"area_id": "150404", "area_name": "松山区", "area_lng": "118.9328", "area_lat": "42.28613", "area_full_name": "中国,内蒙古自治区,赤峰市,松山区"}, {"area_id": "150421", "area_name": "阿鲁科尔沁旗", "area_lng": "120.06527", "area_lat": "43.87988", "area_full_name": "中国,内蒙古自治区,赤峰市,阿鲁科尔沁旗"}, {"area_id": "150422", "area_name": "巴林左旗", "area_lng": "119.38012", "area_lat": "43.97031", "area_full_name": "中国,内蒙古自治区,赤峰市,巴林左旗"}, {"area_id": "150423", "area_name": "巴林右旗", "area_lng": "118.66461", "area_lat": "43.53387", "area_full_name": "中国,内蒙古自治区,赤峰市,巴林右旗"}, {"area_id": "150424", "area_name": "林西县", "area_lng": "118.04733", "area_lat": "43.61165", "area_full_name": "中国,内蒙古自治区,赤峰市,林西县"}, {"area_id": "150425", "area_name": "克什克腾旗", "area_lng": "117.54562", "area_lat": "43.26501", "area_full_name": "中国,内蒙古自治区,赤峰市,克什克腾旗"}, {"area_id": "150426", "area_name": "翁牛特旗", "area_lng": "119.03042", "area_lat": "42.93147", "area_full_name": "中国,内蒙古自治区,赤峰市,翁牛特旗"}, {"area_id": "150428", "area_name": "喀喇沁旗", "area_lng": "118.70144", "area_lat": "41.92917", "area_full_name": "中国,内蒙古自治区,赤峰市,喀喇沁旗"}, {"area_id": "150429", "area_name": "宁城县", "area_lng": "119.34375", "area_lat": "41.59661", "area_full_name": "中国,内蒙古自治区,赤峰市,宁城县"}, {"area_id": "150430", "area_name": "敖汉旗", "area_lng": "119.92163", "area_lat": "42.29071", "area_full_name": "中国,内蒙古自治区,赤峰市,敖汉旗"}]}, {"id": "150500", "city": "通辽市", "lng": "122.263119", "lat": "43.617429", "city_code": "0475", "full_name": "中国,内蒙古自治区,通辽市", "areas": [{"area_id": "150502", "area_name": "科尔沁区", "area_lng": "122.25573", "area_lat": "43.62257", "area_full_name": "中国,内蒙古自治区,通辽市,科尔沁区"}, {"area_id": "150521", "area_name": "科尔沁左翼中旗", "area_lng": "123.31912", "area_lat": "44.13014", "area_full_name": "中国,内蒙古自治区,通辽市,科尔沁左翼中旗"}, {"area_id": "150522", "area_name": "科尔沁左翼后旗", "area_lng": "122.35745", "area_lat": "42.94897", "area_full_name": "中国,内蒙古自治区,通辽市,科尔沁左翼后旗"}, {"area_id": "150523", "area_name": "开鲁县", "area_lng": "121.31884", "area_lat": "43.60003", "area_full_name": "中国,内蒙古自治区,通辽市,开鲁县"}, {"area_id": "150524", "area_name": "库伦旗", "area_lng": "121.776", "area_lat": "42.72998", "area_full_name": "中国,内蒙古自治区,通辽市,库伦旗"}, {"area_id": "150525", "area_name": "奈曼旗", "area_lng": "120.66348", "area_lat": "42.84527", "area_full_name": "中国,内蒙古自治区,通辽市,奈曼旗"}, {"area_id": "150526", "area_name": "扎鲁特旗", "area_lng": "120.91507", "area_lat": "44.55592", "area_full_name": "中国,内蒙古自治区,通辽市,扎鲁特旗"}, {"area_id": "150581", "area_name": "霍林郭勒市", "area_lng": "119.65429", "area_lat": "45.53454", "area_full_name": "中国,内蒙古自治区,通辽市,霍林郭勒市"}]}, {"id": "150600", "city": "鄂尔多斯市", "lng": "109.99029", "lat": "39.817179", "city_code": "0477", "full_name": "中国,内蒙古自治区,鄂尔多斯市", "areas": [{"area_id": "150602", "area_name": "东胜区", "area_lng": "109.96289", "area_lat": "39.82236", "area_full_name": "中国,内蒙古自治区,鄂尔多斯市,东胜区"}, {"area_id": "150621", "area_name": "达拉特旗", "area_lng": "110.03317", "area_lat": "40.4001", "area_full_name": "中国,内蒙古自治区,鄂尔多斯市,达拉特旗"}, {"area_id": "150622", "area_name": "准格尔旗", "area_lng": "111.23645", "area_lat": "39.86783", "area_full_name": "中国,内蒙古自治区,鄂尔多斯市,准格尔旗"}, {"area_id": "150623", "area_name": "鄂托克前旗", "area_lng": "107.48403", "area_lat": "38.18396", "area_full_name": "中国,内蒙古自治区,鄂尔多斯市,鄂托克前旗"}, {"area_id": "150624", "area_name": "鄂托克旗", "area_lng": "107.98226", "area_lat": "39.09456", "area_full_name": "中国,内蒙古自治区,鄂尔多斯市,鄂托克旗"}, {"area_id": "150625", "area_name": "杭锦旗", "area_lng": "108.72934", "area_lat": "39.84023", "area_full_name": "中国,内蒙古自治区,鄂尔多斯市,杭锦旗"}, {"area_id": "150626", "area_name": "乌审旗", "area_lng": "108.8461", "area_lat": "38.59092", "area_full_name": "中国,内蒙古自治区,鄂尔多斯市,乌审旗"}, {"area_id": "150627", "area_name": "伊金霍洛旗", "area_lng": "109.74908", "area_lat": "39.57393", "area_full_name": "中国,内蒙古自治区,鄂尔多斯市,伊金霍洛旗"}]}, {"id": "150700", "city": "呼伦贝尔市", "lng": "119.758168", "lat": "49.215333", "city_code": "0470", "full_name": "中国,内蒙古自治区,呼伦贝尔市", "areas": [{"area_id": "150702", "area_name": "海拉尔区", "area_lng": "119.7364", "area_lat": "49.2122", "area_full_name": "中国,内蒙古自治区,呼伦贝尔市,海拉尔区"}, {"area_id": "150703", "area_name": "扎赉诺尔区", "area_lng": "117.792702", "area_lat": "49.486943", "area_full_name": "中国,内蒙古自治区,呼伦贝尔市,扎赉诺尔区"}, {"area_id": "150721", "area_name": "阿荣旗", "area_lng": "123.45941", "area_lat": "48.12581", "area_full_name": "中国,内蒙古自治区,呼伦贝尔市,阿荣旗"}, {"area_id": "150722", "area_name": "莫力达瓦达斡尔族自治旗", "area_lng": "124.51498", "area_lat": "48.48055", "area_full_name": "中国,内蒙古自治区,呼伦贝尔市,莫力达瓦达斡尔族自治旗"}, {"area_id": "150723", "area_name": "鄂伦春自治旗", "area_lng": "123.72604", "area_lat": "50.59777", "area_full_name": "中国,内蒙古自治区,呼伦贝尔市,鄂伦春自治旗"}, {"area_id": "150724", "area_name": "鄂温克族自治旗", "area_lng": "119.7565", "area_lat": "49.14284", "area_full_name": "中国,内蒙古自治区,呼伦贝尔市,鄂温克族自治旗"}, {"area_id": "150725", "area_name": "陈巴尔虎旗", "area_lng": "119.42434", "area_lat": "49.32684", "area_full_name": "中国,内蒙古自治区,呼伦贝尔市,陈巴尔虎旗"}, {"area_id": "150726", "area_name": "新巴尔虎左旗", "area_lng": "118.26989", "area_lat": "48.21842", "area_full_name": "中国,内蒙古自治区,呼伦贝尔市,新巴尔虎左旗"}, {"area_id": "150727", "area_name": "新巴尔虎右旗", "area_lng": "116.82366", "area_lat": "48.66473", "area_full_name": "中国,内蒙古自治区,呼伦贝尔市,新巴尔虎右旗"}, {"area_id": "150781", "area_name": "满洲里市", "area_lng": "117.47946", "area_lat": "49.58272", "area_full_name": "中国,内蒙古自治区,呼伦贝尔市,满洲里市"}, {"area_id": "150782", "area_name": "牙克石市", "area_lng": "120.7117", "area_lat": "49.2856", "area_full_name": "中国,内蒙古自治区,呼伦贝尔市,牙克石市"}, {"area_id": "150783", "area_name": "扎兰屯市", "area_lng": "122.73757", "area_lat": "48.01363", "area_full_name": "中国,内蒙古自治区,呼伦贝尔市,扎兰屯市"}, {"area_id": "150784", "area_name": "额尔古纳市", "area_lng": "120.19094", "area_lat": "50.24249", "area_full_name": "中国,内蒙古自治区,呼伦贝尔市,额尔古纳市"}, {"area_id": "150785", "area_name": "根河市", "area_lng": "121.52197", "area_lat": "50.77996", "area_full_name": "中国,内蒙古自治区,呼伦贝尔市,根河市"}]}, {"id": "150800", "city": "巴彦淖尔市", "lng": "107.416959", "lat": "40.757402", "city_code": "0478", "full_name": "中国,内蒙古自治区,巴彦淖尔市", "areas": [{"area_id": "150802", "area_name": "临河区", "area_lng": "107.42668", "area_lat": "40.75827", "area_full_name": "中国,内蒙古自治区,巴彦淖尔市,临河区"}, {"area_id": "150821", "area_name": "五原县", "area_lng": "108.26916", "area_lat": "41.09631", "area_full_name": "中国,内蒙古自治区,巴彦淖尔市,五原县"}, {"area_id": "150822", "area_name": "磴口县", "area_lng": "107.00936", "area_lat": "40.33062", "area_full_name": "中国,内蒙古自治区,巴彦淖尔市,磴口县"}, {"area_id": "150823", "area_name": "乌拉特前旗", "area_lng": "108.65219", "area_lat": "40.73649", "area_full_name": "中国,内蒙古自治区,巴彦淖尔市,乌拉特前旗"}, {"area_id": "150824", "area_name": "乌拉特中旗", "area_lng": "108.52587", "area_lat": "41.56789", "area_full_name": "中国,内蒙古自治区,巴彦淖尔市,乌拉特中旗"}, {"area_id": "150825", "area_name": "乌拉特后旗", "area_lng": "106.98971", "area_lat": "41.43151", "area_full_name": "中国,内蒙古自治区,巴彦淖尔市,乌拉特后旗"}, {"area_id": "150826", "area_name": "杭锦后旗", "area_lng": "107.15133", "area_lat": "40.88627", "area_full_name": "中国,内蒙古自治区,巴彦淖尔市,杭锦后旗"}]}, {"id": "150900", "city": "乌兰察布市", "lng": "113.114543", "lat": "41.034126", "city_code": "0474", "full_name": "中国,内蒙古自治区,乌兰察布市", "areas": [{"area_id": "150902", "area_name": "集宁区", "area_lng": "113.11452", "area_lat": "41.0353", "area_full_name": "中国,内蒙古自治区,乌兰察布市,集宁区"}, {"area_id": "150921", "area_name": "卓资县", "area_lng": "112.57757", "area_lat": "40.89414", "area_full_name": "中国,内蒙古自治区,乌兰察布市,卓资县"}, {"area_id": "150922", "area_name": "化德县", "area_lng": "114.01071", "area_lat": "41.90433", "area_full_name": "中国,内蒙古自治区,乌兰察布市,化德县"}, {"area_id": "150923", "area_name": "商都县", "area_lng": "113.57772", "area_lat": "41.56213", "area_full_name": "中国,内蒙古自治区,乌兰察布市,商都县"}, {"area_id": "150924", "area_name": "兴和县", "area_lng": "113.83395", "area_lat": "40.87186", "area_full_name": "中国,内蒙古自治区,乌兰察布市,兴和县"}, {"area_id": "150925", "area_name": "凉城县", "area_lng": "112.49569", "area_lat": "40.53346", "area_full_name": "中国,内蒙古自治区,乌兰察布市,凉城县"}, {"area_id": "150926", "area_name": "察哈尔右翼前旗", "area_lng": "113.22131", "area_lat": "40.7788", "area_full_name": "中国,内蒙古自治区,乌兰察布市,察哈尔右翼前旗"}, {"area_id": "150927", "area_name": "察哈尔右翼中旗", "area_lng": "112.63537", "area_lat": "41.27742", "area_full_name": "中国,内蒙古自治区,乌兰察布市,察哈尔右翼中旗"}, {"area_id": "150928", "area_name": "察哈尔右翼后旗", "area_lng": "113.19216", "area_lat": "41.43554", "area_full_name": "中国,内蒙古自治区,乌兰察布市,察哈尔右翼后旗"}, {"area_id": "150929", "area_name": "四子王旗", "area_lng": "111.70654", "area_lat": "41.53312", "area_full_name": "中国,内蒙古自治区,乌兰察布市,四子王旗"}, {"area_id": "150981", "area_name": "丰镇市", "area_lng": "113.10983", "area_lat": "40.4369", "area_full_name": "中国,内蒙古自治区,乌兰察布市,丰镇市"}]}, {"id": "152200", "city": "兴安盟", "lng": "122.070317", "lat": "46.076268", "city_code": "0482", "full_name": "中国,内蒙古自治区,兴安盟", "areas": [{"area_id": "152201", "area_name": "乌兰浩特市", "area_lng": "122.06378", "area_lat": "46.06235", "area_full_name": "中国,内蒙古自治区,兴安盟,乌兰浩特市"}, {"area_id": "152202", "area_name": "阿尔山市", "area_lng": "119.94317", "area_lat": "47.17716", "area_full_name": "中国,内蒙古自治区,兴安盟,阿尔山市"}, {"area_id": "152221", "area_name": "科尔沁右翼前旗", "area_lng": "121.95269", "area_lat": "46.0795", "area_full_name": "中国,内蒙古自治区,兴安盟,科尔沁右翼前旗"}, {"area_id": "152222", "area_name": "科尔沁右翼中旗", "area_lng": "121.46807", "area_lat": "45.05605", "area_full_name": "中国,内蒙古自治区,兴安盟,科尔沁右翼中旗"}, {"area_id": "152223", "area_name": "扎赉特旗", "area_lng": "122.91229", "area_lat": "46.7267", "area_full_name": "中国,内蒙古自治区,兴安盟,扎赉特旗"}, {"area_id": "152224", "area_name": "突泉县", "area_lng": "121.59396", "area_lat": "45.38187", "area_full_name": "中国,内蒙古自治区,兴安盟,突泉县"}]}, {"id": "152500", "city": "锡林郭勒盟", "lng": "116.090996", "lat": "43.944018", "city_code": "0479", "full_name": "中国,内蒙古自治区,锡林郭勒盟", "areas": [{"area_id": "152501", "area_name": "二连浩特市", "area_lng": "111.98297", "area_lat": "43.65303", "area_full_name": "中国,内蒙古自治区,锡林郭勒盟,二连浩特市"}, {"area_id": "152502", "area_name": "锡林浩特市", "area_lng": "116.08603", "area_lat": "43.93341", "area_full_name": "中国,内蒙古自治区,锡林郭勒盟,锡林浩特市"}, {"area_id": "152522", "area_name": "阿巴嘎旗", "area_lng": "114.96826", "area_lat": "44.02174", "area_full_name": "中国,内蒙古自治区,锡林郭勒盟,阿巴嘎旗"}, {"area_id": "152523", "area_name": "苏尼特左旗", "area_lng": "113.6506", "area_lat": "43.85687", "area_full_name": "中国,内蒙古自治区,锡林郭勒盟,苏尼特左旗"}, {"area_id": "152524", "area_name": "苏尼特右旗", "area_lng": "112.65741", "area_lat": "42.7469", "area_full_name": "中国,内蒙古自治区,锡林郭勒盟,苏尼特右旗"}, {"area_id": "152525", "area_name": "东乌珠穆沁旗", "area_lng": "116.97293", "area_lat": "45.51108", "area_full_name": "中国,内蒙古自治区,锡林郭勒盟,东乌珠穆沁旗"}, {"area_id": "152526", "area_name": "西乌珠穆沁旗", "area_lng": "117.60983", "area_lat": "44.59623", "area_full_name": "中国,内蒙古自治区,锡林郭勒盟,西乌珠穆沁旗"}, {"area_id": "152527", "area_name": "太仆寺旗", "area_lng": "115.28302", "area_lat": "41.87727", "area_full_name": "中国,内蒙古自治区,锡林郭勒盟,太仆寺旗"}, {"area_id": "152528", "area_name": "镶黄旗", "area_lng": "113.84472", "area_lat": "42.23927", "area_full_name": "中国,内蒙古自治区,锡林郭勒盟,镶黄旗"}, {"area_id": "152529", "area_name": "正镶白旗", "area_lng": "115.00067", "area_lat": "42.30712", "area_full_name": "中国,内蒙古自治区,锡林郭勒盟,正镶白旗"}, {"area_id": "152530", "area_name": "正蓝旗", "area_lng": "116.00363", "area_lat": "42.25229", "area_full_name": "中国,内蒙古自治区,锡林郭勒盟,正蓝旗"}, {"area_id": "152531", "area_name": "多伦县", "area_lng": "116.48565", "area_lat": "42.203", "area_full_name": "中国,内蒙古自治区,锡林郭勒盟,多伦县"}]}, {"id": "152900", "city": "阿拉善盟", "lng": "105.706422", "lat": "38.844814", "city_code": "0483", "full_name": "中国,内蒙古自治区,阿拉善盟", "areas": [{"area_id": "152921", "area_name": "阿拉善左旗", "area_lng": "105.67532", "area_lat": "38.8293", "area_full_name": "中国,内蒙古自治区,阿拉善盟,阿拉善左旗"}, {"area_id": "152922", "area_name": "阿拉善右旗", "area_lng": "101.66705", "area_lat": "39.21533", "area_full_name": "中国,内蒙古自治区,阿拉善盟,阿拉善右旗"}, {"area_id": "152923", "area_name": "额济纳旗", "area_lng": "101.06887", "area_lat": "41.96755", "area_full_name": "中国,内蒙古自治区,阿拉善盟,额济纳旗"}]}, {"id": "210100", "city": "沈阳市", "lng": "123.429096", "lat": "41.796767", "city_code": "024", "full_name": "中国,辽宁省,沈阳市", "areas": [{"area_id": "210102", "area_name": "和平区", "area_lng": "123.4204", "area_lat": "41.78997", "area_full_name": "中国,辽宁省,沈阳市,和平区"}, {"area_id": "210103", "area_name": "沈河区", "area_lng": "123.45871", "area_lat": "41.79625", "area_full_name": "中国,辽宁省,沈阳市,沈河区"}, {"area_id": "210104", "area_name": "大东区", "area_lng": "123.46997", "area_lat": "41.80539", "area_full_name": "中国,辽宁省,沈阳市,大东区"}, {"area_id": "210105", "area_name": "皇姑区", "area_lng": "123.42527", "area_lat": "41.82035", "area_full_name": "中国,辽宁省,沈阳市,皇姑区"}, {"area_id": "210106", "area_name": "铁西区", "area_lng": "123.37675", "area_lat": "41.80269", "area_full_name": "中国,辽宁省,沈阳市,铁西区"}, {"area_id": "210111", "area_name": "苏家屯区", "area_lng": "123.34405", "area_lat": "41.66475", "area_full_name": "中国,辽宁省,沈阳市,苏家屯区"}, {"area_id": "210112", "area_name": "浑南区", "area_lng": "123.457707", "area_lat": "41.719450", "area_full_name": "中国,辽宁省,沈阳市,浑南区"}, {"area_id": "210113", "area_name": "沈北新区", "area_lng": "123.52658", "area_lat": "42.05297", "area_full_name": "中国,辽宁省,沈阳市,沈北新区"}, {"area_id": "210114", "area_name": "于洪区", "area_lng": "123.30807", "area_lat": "41.794", "area_full_name": "中国,辽宁省,沈阳市,于洪区"}, {"area_id": "210122", "area_name": "辽中县", "area_lng": "122.72659", "area_lat": "41.51302", "area_full_name": "中国,辽宁省,沈阳市,辽中县"}, {"area_id": "210123", "area_name": "康平县", "area_lng": "123.35446", "area_lat": "42.75081", "area_full_name": "中国,辽宁省,沈阳市,康平县"}, {"area_id": "210124", "area_name": "法库县", "area_lng": "123.41214", "area_lat": "42.50608", "area_full_name": "中国,辽宁省,沈阳市,法库县"}, {"area_id": "210181", "area_name": "新民市", "area_lng": "122.82867", "area_lat": "41.99847", "area_full_name": "中国,辽宁省,沈阳市,新民市"}]}, {"id": "210200", "city": "大连市", "lng": "121.618622", "lat": "38.91459", "city_code": "0411", "full_name": "中国,辽宁省,大连市", "areas": [{"area_id": "210202", "area_name": "中山区", "area_lng": "121.64465", "area_lat": "38.91859", "area_full_name": "中国,辽宁省,大连市,中山区"}, {"area_id": "210203", "area_name": "西岗区", "area_lng": "121.61238", "area_lat": "38.91469", "area_full_name": "中国,辽宁省,大连市,西岗区"}, {"area_id": "210204", "area_name": "沙河口区", "area_lng": "121.58017", "area_lat": "38.90536", "area_full_name": "中国,辽宁省,大连市,沙河口区"}, {"area_id": "210211", "area_name": "甘井子区", "area_lng": "121.56567", "area_lat": "38.95017", "area_full_name": "中国,辽宁省,大连市,甘井子区"}, {"area_id": "210212", "area_name": "旅顺口区", "area_lng": "121.26202", "area_lat": "38.85125", "area_full_name": "中国,辽宁省,大连市,旅顺口区"}, {"area_id": "210213", "area_name": "金州区", "area_lng": "121.71893", "area_lat": "39.1004", "area_full_name": "中国,辽宁省,大连市,金州区"}, {"area_id": "210224", "area_name": "长海县", "area_lng": "122.58859", "area_lat": "39.27274", "area_full_name": "中国,辽宁省,大连市,长海县"}, {"area_id": "210281", "area_name": "瓦房店市", "area_lng": "121.98104", "area_lat": "39.62843", "area_full_name": "中国,辽宁省,大连市,瓦房店市"}, {"area_id": "210282", "area_name": "普兰店市", "area_lng": "121.96316", "area_lat": "39.39465", "area_full_name": "中国,辽宁省,大连市,普兰店市"}, {"area_id": "210283", "area_name": "庄河市", "area_lng": "122.96725", "area_lat": "39.68815", "area_full_name": "中国,辽宁省,大连市,庄河市"}]}, {"id": "210300", "city": "鞍山市", "lng": "122.995632", "lat": "41.110626", "city_code": "0412", "full_name": "中国,辽宁省,鞍山市", "areas": [{"area_id": "210302", "area_name": "铁东区", "area_lng": "122.99085", "area_lat": "41.08975", "area_full_name": "中国,辽宁省,鞍山市,铁东区"}, {"area_id": "210303", "area_name": "铁西区", "area_lng": "122.96967", "area_lat": "41.11977", "area_full_name": "中国,辽宁省,鞍山市,铁西区"}, {"area_id": "210304", "area_name": "立山区", "area_lng": "123.02948", "area_lat": "41.15008", "area_full_name": "中国,辽宁省,鞍山市,立山区"}, {"area_id": "210311", "area_name": "千山区", "area_lng": "122.96048", "area_lat": "41.07507", "area_full_name": "中国,辽宁省,鞍山市,千山区"}, {"area_id": "210321", "area_name": "台安县", "area_lng": "122.43585", "area_lat": "41.41265", "area_full_name": "中国,辽宁省,鞍山市,台安县"}, {"area_id": "210323", "area_name": "岫岩满族自治县", "area_lng": "123.28875", "area_lat": "40.27996", "area_full_name": "中国,辽宁省,鞍山市,岫岩满族自治县"}, {"area_id": "210381", "area_name": "海城市", "area_lng": "122.68457", "area_lat": "40.88142", "area_full_name": "中国,辽宁省,鞍山市,海城市"}]}, {"id": "210400", "city": "抚顺市", "lng": "123.921109", "lat": "41.875956", "city_code": "024", "full_name": "中国,辽宁省,抚顺市", "areas": [{"area_id": "210402", "area_name": "新抚区", "area_lng": "123.91264", "area_lat": "41.86205", "area_full_name": "中国,辽宁省,抚顺市,新抚区"}, {"area_id": "210403", "area_name": "东洲区", "area_lng": "124.03759", "area_lat": "41.8519", "area_full_name": "中国,辽宁省,抚顺市,东洲区"}, {"area_id": "210404", "area_name": "望花区", "area_lng": "123.78283", "area_lat": "41.85532", "area_full_name": "中国,辽宁省,抚顺市,望花区"}, {"area_id": "210411", "area_name": "顺城区", "area_lng": "123.94506", "area_lat": "41.88321", "area_full_name": "中国,辽宁省,抚顺市,顺城区"}, {"area_id": "210421", "area_name": "抚顺县", "area_lng": "124.17755", "area_lat": "41.71217", "area_full_name": "中国,辽宁省,抚顺市,抚顺县"}, {"area_id": "210422", "area_name": "新宾满族自治县", "area_lng": "125.04049", "area_lat": "41.73409", "area_full_name": "中国,辽宁省,抚顺市,新宾满族自治县"}, {"area_id": "210423", "area_name": "清原满族自治县", "area_lng": "124.92807", "area_lat": "42.10221", "area_full_name": "中国,辽宁省,抚顺市,清原满族自治县"}]}, {"id": "210500", "city": "本溪市", "lng": "123.770519", "lat": "41.297909", "city_code": "0414", "full_name": "中国,辽宁省,本溪市", "areas": [{"area_id": "210502", "area_name": "平山区", "area_lng": "123.76892", "area_lat": "41.2997", "area_full_name": "中国,辽宁省,本溪市,平山区"}, {"area_id": "210503", "area_name": "溪湖区", "area_lng": "123.76764", "area_lat": "41.32921", "area_full_name": "中国,辽宁省,本溪市,溪湖区"}, {"area_id": "210504", "area_name": "明山区", "area_lng": "123.81746", "area_lat": "41.30827", "area_full_name": "中国,辽宁省,本溪市,明山区"}, {"area_id": "210505", "area_name": "南芬区", "area_lng": "123.74523", "area_lat": "41.1006", "area_full_name": "中国,辽宁省,本溪市,南芬区"}, {"area_id": "210521", "area_name": "本溪满族自治县", "area_lng": "124.12741", "area_lat": "41.30059", "area_full_name": "中国,辽宁省,本溪市,本溪满族自治县"}, {"area_id": "210522", "area_name": "桓仁满族自治县", "area_lng": "125.36062", "area_lat": "41.26798", "area_full_name": "中国,辽宁省,本溪市,桓仁满族自治县"}]}, {"id": "210600", "city": "丹东市", "lng": "124.383044", "lat": "40.124296", "city_code": "0415", "full_name": "中国,辽宁省,丹东市", "areas": [{"area_id": "210602", "area_name": "元宝区", "area_lng": "124.39575", "area_lat": "40.13651", "area_full_name": "中国,辽宁省,丹东市,元宝区"}, {"area_id": "210603", "area_name": "振兴区", "area_lng": "124.36035", "area_lat": "40.10489", "area_full_name": "中国,辽宁省,丹东市,振兴区"}, {"area_id": "210604", "area_name": "振安区", "area_lng": "124.42816", "area_lat": "40.15826", "area_full_name": "中国,辽宁省,丹东市,振安区"}, {"area_id": "210624", "area_name": "宽甸满族自治县", "area_lng": "124.78247", "area_lat": "40.73187", "area_full_name": "中国,辽宁省,丹东市,宽甸满族自治县"}, {"area_id": "210681", "area_name": "东港市", "area_lng": "124.16287", "area_lat": "39.86256", "area_full_name": "中国,辽宁省,丹东市,东港市"}, {"area_id": "210682", "area_name": "凤城市", "area_lng": "124.06671", "area_lat": "40.45302", "area_full_name": "中国,辽宁省,丹东市,凤城市"}]}, {"id": "210700", "city": "锦州市", "lng": "121.135742", "lat": "41.119269", "city_code": "0416", "full_name": "中国,辽宁省,锦州市", "areas": [{"area_id": "210702", "area_name": "古塔区", "area_lng": "121.12832", "area_lat": "41.11725", "area_full_name": "中国,辽宁省,锦州市,古塔区"}, {"area_id": "210703", "area_name": "凌河区", "area_lng": "121.15089", "area_lat": "41.11496", "area_full_name": "中国,辽宁省,锦州市,凌河区"}, {"area_id": "210711", "area_name": "太和区", "area_lng": "121.10354", "area_lat": "41.10929", "area_full_name": "中国,辽宁省,锦州市,太和区"}, {"area_id": "210726", "area_name": "黑山县", "area_lng": "122.12081", "area_lat": "41.69417", "area_full_name": "中国,辽宁省,锦州市,黑山县"}, {"area_id": "210727", "area_name": "义县", "area_lng": "121.24035", "area_lat": "41.53458", "area_full_name": "中国,辽宁省,锦州市,义县"}, {"area_id": "210781", "area_name": "凌海市", "area_lng": "121.35705", "area_lat": "41.1737", "area_full_name": "中国,辽宁省,锦州市,凌海市"}, {"area_id": "210782", "area_name": "北镇市", "area_lng": "121.79858", "area_lat": "41.59537", "area_full_name": "中国,辽宁省,锦州市,北镇市"}]}, {"id": "210800", "city": "营口市", "lng": "122.235151", "lat": "40.667432", "city_code": "0417", "full_name": "中国,辽宁省,营口市", "areas": [{"area_id": "210802", "area_name": "站前区", "area_lng": "122.25896", "area_lat": "40.67266", "area_full_name": "中国,辽宁省,营口市,站前区"}, {"area_id": "210803", "area_name": "西市区", "area_lng": "122.20641", "area_lat": "40.6664", "area_full_name": "中国,辽宁省,营口市,西市区"}, {"area_id": "210804", "area_name": "鲅鱼圈区", "area_lng": "122.13266", "area_lat": "40.26865", "area_full_name": "中国,辽宁省,营口市,鲅鱼圈区"}, {"area_id": "210811", "area_name": "老边区", "area_lng": "122.37996", "area_lat": "40.6803", "area_full_name": "中国,辽宁省,营口市,老边区"}, {"area_id": "210881", "area_name": "盖州市", "area_lng": "122.35464", "area_lat": "40.40446", "area_full_name": "中国,辽宁省,营口市,盖州市"}, {"area_id": "210882", "area_name": "大石桥市", "area_lng": "122.50927", "area_lat": "40.64567", "area_full_name": "中国,辽宁省,营口市,大石桥市"}]}, {"id": "210900", "city": "阜新市", "lng": "121.648962", "lat": "42.011796", "city_code": "0418", "full_name": "中国,辽宁省,阜新市", "areas": [{"area_id": "210902", "area_name": "海州区", "area_lng": "121.65626", "area_lat": "42.01336", "area_full_name": "中国,辽宁省,阜新市,海州区"}, {"area_id": "210903", "area_name": "新邱区", "area_lng": "121.79251", "area_lat": "42.09181", "area_full_name": "中国,辽宁省,阜新市,新邱区"}, {"area_id": "210904", "area_name": "太平区", "area_lng": "121.67865", "area_lat": "42.01065", "area_full_name": "中国,辽宁省,阜新市,太平区"}, {"area_id": "210905", "area_name": "清河门区", "area_lng": "121.4161", "area_lat": "41.78309", "area_full_name": "中国,辽宁省,阜新市,清河门区"}, {"area_id": "210911", "area_name": "细河区", "area_lng": "121.68013", "area_lat": "42.02533", "area_full_name": "中国,辽宁省,阜新市,细河区"}, {"area_id": "210921", "area_name": "阜新蒙古族自治县", "area_lng": "121.75787", "area_lat": "42.0651", "area_full_name": "中国,辽宁省,阜新市,阜新蒙古族自治县"}, {"area_id": "210922", "area_name": "彰武县", "area_lng": "122.54022", "area_lat": "42.38625", "area_full_name": "中国,辽宁省,阜新市,彰武县"}]}, {"id": "211000", "city": "辽阳市", "lng": "123.18152", "lat": "41.269402", "city_code": "0419", "full_name": "中国,辽宁省,辽阳市", "areas": [{"area_id": "211002", "area_name": "白塔区", "area_lng": "123.1747", "area_lat": "41.27025", "area_full_name": "中国,辽宁省,辽阳市,白塔区"}, {"area_id": "211003", "area_name": "文圣区", "area_lng": "123.18521", "area_lat": "41.26267", "area_full_name": "中国,辽宁省,辽阳市,文圣区"}, {"area_id": "211004", "area_name": "宏伟区", "area_lng": "123.1929", "area_lat": "41.21852", "area_full_name": "中国,辽宁省,辽阳市,宏伟区"}, {"area_id": "211005", "area_name": "弓长岭区", "area_lng": "123.41963", "area_lat": "41.15181", "area_full_name": "中国,辽宁省,辽阳市,弓长岭区"}, {"area_id": "211011", "area_name": "太子河区", "area_lng": "123.18182", "area_lat": "41.25337", "area_full_name": "中国,辽宁省,辽阳市,太子河区"}, {"area_id": "211021", "area_name": "辽阳县", "area_lng": "123.10574", "area_lat": "41.20542", "area_full_name": "中国,辽宁省,辽阳市,辽阳县"}, {"area_id": "211081", "area_name": "灯塔市", "area_lng": "123.33926", "area_lat": "41.42612", "area_full_name": "中国,辽宁省,辽阳市,灯塔市"}]}, {"id": "211100", "city": "盘锦市", "lng": "122.06957", "lat": "41.124484", "city_code": "0427", "full_name": "中国,辽宁省,盘锦市", "areas": [{"area_id": "211102", "area_name": "双台子区", "area_lng": "122.06011", "area_lat": "41.1906", "area_full_name": "中国,辽宁省,盘锦市,双台子区"}, {"area_id": "211103", "area_name": "兴隆台区", "area_lng": "122.07529", "area_lat": "41.12402", "area_full_name": "中国,辽宁省,盘锦市,兴隆台区"}, {"area_id": "211121", "area_name": "大洼县", "area_lng": "122.08239", "area_lat": "41.00244", "area_full_name": "中国,辽宁省,盘锦市,大洼县"}, {"area_id": "211122", "area_name": "盘山县", "area_lng": "121.99777", "area_lat": "41.23805", "area_full_name": "中国,辽宁省,盘锦市,盘山县"}]}, {"id": "211200", "city": "铁岭市", "lng": "123.844279", "lat": "42.290585", "city_code": "024", "full_name": "中国,辽宁省,铁岭市", "areas": [{"area_id": "211202", "area_name": "银州区", "area_lng": "123.8573", "area_lat": "42.29507", "area_full_name": "中国,辽宁省,铁岭市,银州区"}, {"area_id": "211204", "area_name": "清河区", "area_lng": "124.15911", "area_lat": "42.54679", "area_full_name": "中国,辽宁省,铁岭市,清河区"}, {"area_id": "211221", "area_name": "铁岭县", "area_lng": "123.77325", "area_lat": "42.22498", "area_full_name": "中国,辽宁省,铁岭市,铁岭县"}, {"area_id": "211223", "area_name": "西丰县", "area_lng": "124.7304", "area_lat": "42.73756", "area_full_name": "中国,辽宁省,铁岭市,西丰县"}, {"area_id": "211224", "area_name": "昌图县", "area_lng": "124.11206", "area_lat": "42.78428", "area_full_name": "中国,辽宁省,铁岭市,昌图县"}, {"area_id": "211281", "area_name": "调兵山市", "area_lng": "123.56689", "area_lat": "42.4675", "area_full_name": "中国,辽宁省,铁岭市,调兵山市"}, {"area_id": "211282", "area_name": "开原市", "area_lng": "124.03945", "area_lat": "42.54585", "area_full_name": "中国,辽宁省,铁岭市,开原市"}]}, {"id": "211300", "city": "朝阳市", "lng": "120.451176", "lat": "41.576758", "city_code": "0421", "full_name": "中国,辽宁省,朝阳市", "areas": [{"area_id": "211302", "area_name": "双塔区", "area_lng": "120.45385", "area_lat": "41.566", "area_full_name": "中国,辽宁省,朝阳市,双塔区"}, {"area_id": "211303", "area_name": "龙城区", "area_lng": "120.43719", "area_lat": "41.59264", "area_full_name": "中国,辽宁省,朝阳市,龙城区"}, {"area_id": "211321", "area_name": "朝阳县", "area_lng": "120.17401", "area_lat": "41.4324", "area_full_name": "中国,辽宁省,朝阳市,朝阳县"}, {"area_id": "211322", "area_name": "建平县", "area_lng": "119.64392", "area_lat": "41.40315", "area_full_name": "中国,辽宁省,朝阳市,建平县"}, {"area_id": "211324", "area_name": "喀喇沁左翼蒙古族自治县", "area_lng": "119.74185", "area_lat": "41.12801", "area_full_name": "中国,辽宁省,朝阳市,喀喇沁左翼蒙古族自治县"}, {"area_id": "211381", "area_name": "北票市", "area_lng": "120.76977", "area_lat": "41.80196", "area_full_name": "中国,辽宁省,朝阳市,北票市"}, {"area_id": "211382", "area_name": "凌源市", "area_lng": "119.40148", "area_lat": "41.24558", "area_full_name": "中国,辽宁省,朝阳市,凌源市"}]}, {"id": "211400", "city": "葫芦岛市", "lng": "120.856394", "lat": "40.755572", "city_code": "0429", "full_name": "中国,辽宁省,葫芦岛市", "areas": [{"area_id": "211402", "area_name": "连山区", "area_lng": "120.86393", "area_lat": "40.75554", "area_full_name": "中国,辽宁省,葫芦岛市,连山区"}, {"area_id": "211403", "area_name": "龙港区", "area_lng": "120.94866", "area_lat": "40.71919", "area_full_name": "中国,辽宁省,葫芦岛市,龙港区"}, {"area_id": "211404", "area_name": "南票区", "area_lng": "120.74978", "area_lat": "41.10707", "area_full_name": "中国,辽宁省,葫芦岛市,南票区"}, {"area_id": "211421", "area_name": "绥中县", "area_lng": "120.34451", "area_lat": "40.32552", "area_full_name": "中国,辽宁省,葫芦岛市,绥中县"}, {"area_id": "211422", "area_name": "建昌县", "area_lng": "119.8377", "area_lat": "40.82448", "area_full_name": "中国,辽宁省,葫芦岛市,建昌县"}, {"area_id": "211481", "area_name": "兴城市", "area_lng": "120.72537", "area_lat": "40.61492", "area_full_name": "中国,辽宁省,葫芦岛市,兴城市"}]}, {"id": "211500", "city": "金普新区", "lng": "121.789627", "lat": "39.055451", "city_code": "0411", "full_name": "中国,辽宁省,金普新区", "areas": [{"area_id": "211501", "area_name": "金州新区", "area_lng": "121.784821", "area_lat": "39.052252", "area_full_name": "中国,辽宁省,金普新区,金州新区"}, {"area_id": "211502", "area_name": "普湾新区", "area_lng": "121.812812", "area_lat": "39.330093", "area_full_name": "中国,辽宁省,金普新区,普湾新区"}, {"area_id": "211503", "area_name": "保税区", "area_lng": "121.94289", "area_lat": "39.224614", "area_full_name": "中国,辽宁省,金普新区,保税区"}]}, {"id": "220100", "city": "长春市", "lng": "125.3245", "lat": "43.886841", "city_code": "0431", "full_name": "中国,吉林省,长春市", "areas": [{"area_id": "220102", "area_name": "南关区", "area_lng": "125.35035", "area_lat": "43.86401", "area_full_name": "中国,吉林省,长春市,南关区"}, {"area_id": "220103", "area_name": "宽城区", "area_lng": "125.32635", "area_lat": "43.90182", "area_full_name": "中国,吉林省,长春市,宽城区"}, {"area_id": "220104", "area_name": "朝阳区", "area_lng": "125.2883", "area_lat": "43.83339", "area_full_name": "中国,吉林省,长春市,朝阳区"}, {"area_id": "220105", "area_name": "二道区", "area_lng": "125.37429", "area_lat": "43.86501", "area_full_name": "中国,吉林省,长春市,二道区"}, {"area_id": "220106", "area_name": "绿园区", "area_lng": "125.25582", "area_lat": "43.88045", "area_full_name": "中国,吉林省,长春市,绿园区"}, {"area_id": "220112", "area_name": "双阳区", "area_lng": "125.65631", "area_lat": "43.52803", "area_full_name": "中国,吉林省,长春市,双阳区"}, {"area_id": "220113", "area_name": "九台区", "area_lng": "125.8395", "area_lat": "44.15163", "area_full_name": "中国,吉林省,长春市,九台区"}, {"area_id": "220122", "area_name": "农安县", "area_lng": "125.18481", "area_lat": "44.43265", "area_full_name": "中国,吉林省,长春市,农安县"}, {"area_id": "220182", "area_name": "榆树市", "area_lng": "126.55688", "area_lat": "44.82523", "area_full_name": "中国,吉林省,长春市,榆树市"}, {"area_id": "220183", "area_name": "德惠市", "area_lng": "125.70538", "area_lat": "44.53719", "area_full_name": "中国,吉林省,长春市,德惠市"}]}, {"id": "220200", "city": "吉林市", "lng": "126.55302", "lat": "43.843577", "city_code": "0432", "full_name": "中国,吉林省,吉林市", "areas": [{"area_id": "220202", "area_name": "昌邑区", "area_lng": "126.57424", "area_lat": "43.88183", "area_full_name": "中国,吉林省,吉林市,昌邑区"}, {"area_id": "220203", "area_name": "龙潭区", "area_lng": "126.56213", "area_lat": "43.91054", "area_full_name": "中国,吉林省,吉林市,龙潭区"}, {"area_id": "220204", "area_name": "船营区", "area_lng": "126.54096", "area_lat": "43.83344", "area_full_name": "中国,吉林省,吉林市,船营区"}, {"area_id": "220211", "area_name": "丰满区", "area_lng": "126.56237", "area_lat": "43.82236", "area_full_name": "中国,吉林省,吉林市,丰满区"}, {"area_id": "220221", "area_name": "永吉县", "area_lng": "126.4963", "area_lat": "43.67197", "area_full_name": "中国,吉林省,吉林市,永吉县"}, {"area_id": "220281", "area_name": "蛟河市", "area_lng": "127.34426", "area_lat": "43.72696", "area_full_name": "中国,吉林省,吉林市,蛟河市"}, {"area_id": "220282", "area_name": "桦甸市", "area_lng": "126.74624", "area_lat": "42.97206", "area_full_name": "中国,吉林省,吉林市,桦甸市"}, {"area_id": "220283", "area_name": "舒兰市", "area_lng": "126.9653", "area_lat": "44.40582", "area_full_name": "中国,吉林省,吉林市,舒兰市"}, {"area_id": "220284", "area_name": "磐石市", "area_lng": "126.0625", "area_lat": "42.94628", "area_full_name": "中国,吉林省,吉林市,磐石市"}]}, {"id": "220300", "city": "四平市", "lng": "124.370785", "lat": "43.170344", "city_code": "0434", "full_name": "中国,吉林省,四平市", "areas": [{"area_id": "220302", "area_name": "铁西区", "area_lng": "124.37369", "area_lat": "43.17456", "area_full_name": "中国,吉林省,四平市,铁西区"}, {"area_id": "220303", "area_name": "铁东区", "area_lng": "124.40976", "area_lat": "43.16241", "area_full_name": "中国,吉林省,四平市,铁东区"}, {"area_id": "220322", "area_name": "梨树县", "area_lng": "124.33563", "area_lat": "43.30717", "area_full_name": "中国,吉林省,四平市,梨树县"}, {"area_id": "220323", "area_name": "伊通满族自治县", "area_lng": "125.30596", "area_lat": "43.34434", "area_full_name": "中国,吉林省,四平市,伊通满族自治县"}, {"area_id": "220381", "area_name": "公主岭市", "area_lng": "124.82266", "area_lat": "43.50453", "area_full_name": "中国,吉林省,四平市,公主岭市"}, {"area_id": "220382", "area_name": "双辽市", "area_lng": "123.50106", "area_lat": "43.52099", "area_full_name": "中国,吉林省,四平市,双辽市"}]}, {"id": "220400", "city": "辽源市", "lng": "125.145349", "lat": "42.902692", "city_code": "0437", "full_name": "中国,吉林省,辽源市", "areas": [{"area_id": "220402", "area_name": "龙山区", "area_lng": "125.13641", "area_lat": "42.89714", "area_full_name": "中国,吉林省,辽源市,龙山区"}, {"area_id": "220403", "area_name": "西安区", "area_lng": "125.14904", "area_lat": "42.927", "area_full_name": "中国,吉林省,辽源市,西安区"}, {"area_id": "220421", "area_name": "东丰县", "area_lng": "125.53244", "area_lat": "42.6783", "area_full_name": "中国,吉林省,辽源市,东丰县"}, {"area_id": "220422", "area_name": "东辽县", "area_lng": "124.98596", "area_lat": "42.92492", "area_full_name": "中国,吉林省,辽源市,东辽县"}]}, {"id": "220500", "city": "通化市", "lng": "125.936501", "lat": "41.721177", "city_code": "0435", "full_name": "中国,吉林省,通化市", "areas": [{"area_id": "220502", "area_name": "东昌区", "area_lng": "125.9551", "area_lat": "41.72849", "area_full_name": "中国,吉林省,通化市,东昌区"}, {"area_id": "220503", "area_name": "二道江区", "area_lng": "126.04257", "area_lat": "41.7741", "area_full_name": "中国,吉林省,通化市,二道江区"}, {"area_id": "220521", "area_name": "通化县", "area_lng": "125.75936", "area_lat": "41.67928", "area_full_name": "中国,吉林省,通化市,通化县"}, {"area_id": "220523", "area_name": "辉南县", "area_lng": "126.04684", "area_lat": "42.68497", "area_full_name": "中国,吉林省,通化市,辉南县"}, {"area_id": "220524", "area_name": "柳河县", "area_lng": "125.74475", "area_lat": "42.28468", "area_full_name": "中国,吉林省,通化市,柳河县"}, {"area_id": "220581", "area_name": "梅河口市", "area_lng": "125.71041", "area_lat": "42.53828", "area_full_name": "中国,吉林省,通化市,梅河口市"}, {"area_id": "220582", "area_name": "集安市", "area_lng": "126.18829", "area_lat": "41.12268", "area_full_name": "中国,吉林省,通化市,集安市"}]}, {"id": "220600", "city": "白山市", "lng": "126.427839", "lat": "41.942505", "city_code": "0439", "full_name": "中国,吉林省,白山市", "areas": [{"area_id": "220602", "area_name": "浑江区", "area_lng": "126.422342", "area_lat": "41.945656", "area_full_name": "中国,吉林省,白山市,浑江区"}, {"area_id": "220605", "area_name": "江源区", "area_lng": "126.59079", "area_lat": "42.05664", "area_full_name": "中国,吉林省,白山市,江源区"}, {"area_id": "220621", "area_name": "抚松县", "area_lng": "127.2803", "area_lat": "42.34198", "area_full_name": "中国,吉林省,白山市,抚松县"}, {"area_id": "220622", "area_name": "靖宇县", "area_lng": "126.81308", "area_lat": "42.38863", "area_full_name": "中国,吉林省,白山市,靖宇县"}, {"area_id": "220623", "area_name": "长白朝鲜族自治县", "area_lng": "128.20047", "area_lat": "41.41996", "area_full_name": "中国,吉林省,白山市,长白朝鲜族自治县"}, {"area_id": "220681", "area_name": "临江市", "area_lng": "126.91751", "area_lat": "41.81142", "area_full_name": "中国,吉林省,白山市,临江市"}]}, {"id": "220700", "city": "松原市", "lng": "124.823608", "lat": "45.118243", "city_code": "0438", "full_name": "中国,吉林省,松原市", "areas": [{"area_id": "220702", "area_name": "宁江区", "area_lng": "124.81689", "area_lat": "45.17175", "area_full_name": "中国,吉林省,松原市,宁江区"}, {"area_id": "220721", "area_name": "前郭尔罗斯蒙古族自治县", "area_lng": "124.82351", "area_lat": "45.11726", "area_full_name": "中国,吉林省,松原市,前郭尔罗斯蒙古族自治县"}, {"area_id": "220722", "area_name": "长岭县", "area_lng": "123.96725", "area_lat": "44.27581", "area_full_name": "中国,吉林省,松原市,长岭县"}, {"area_id": "220723", "area_name": "乾安县", "area_lng": "124.02737", "area_lat": "45.01068", "area_full_name": "中国,吉林省,松原市,乾安县"}, {"area_id": "220781", "area_name": "扶余市", "area_lng": "126.042758", "area_lat": "44.986199", "area_full_name": "中国,吉林省,松原市,扶余市"}]}, {"id": "220800", "city": "白城市", "lng": "122.841114", "lat": "45.619026", "city_code": "0436", "full_name": "中国,吉林省,白城市", "areas": [{"area_id": "220802", "area_name": "洮北区", "area_lng": "122.85104", "area_lat": "45.62167", "area_full_name": "中国,吉林省,白城市,洮北区"}, {"area_id": "220821", "area_name": "镇赉县", "area_lng": "123.19924", "area_lat": "45.84779", "area_full_name": "中国,吉林省,白城市,镇赉县"}, {"area_id": "220822", "area_name": "通榆县", "area_lng": "123.08761", "area_lat": "44.81388", "area_full_name": "中国,吉林省,白城市,通榆县"}, {"area_id": "220881", "area_name": "洮南市", "area_lng": "122.78772", "area_lat": "45.33502", "area_full_name": "中国,吉林省,白城市,洮南市"}, {"area_id": "220882", "area_name": "大安市", "area_lng": "124.29519", "area_lat": "45.50846", "area_full_name": "中国,吉林省,白城市,大安市"}]}, {"id": "222400", "city": "延边朝鲜族自治州", "lng": "129.513228", "lat": "42.904823", "city_code": "0433", "full_name": "中国,吉林省,延边朝鲜族自治州", "areas": [{"area_id": "222401", "area_name": "延吉市", "area_lng": "129.51357", "area_lat": "42.90682", "area_full_name": "中国,吉林省,延边朝鲜族自治州,延吉市"}, {"area_id": "222402", "area_name": "图们市", "area_lng": "129.84381", "area_lat": "42.96801", "area_full_name": "中国,吉林省,延边朝鲜族自治州,图们市"}, {"area_id": "222403", "area_name": "敦化市", "area_lng": "128.23242", "area_lat": "43.37304", "area_full_name": "中国,吉林省,延边朝鲜族自治州,敦化市"}, {"area_id": "222404", "area_name": "珲春市", "area_lng": "130.36572", "area_lat": "42.86242", "area_full_name": "中国,吉林省,延边朝鲜族自治州,珲春市"}, {"area_id": "222405", "area_name": "龙井市", "area_lng": "129.42584", "area_lat": "42.76804", "area_full_name": "中国,吉林省,延边朝鲜族自治州,龙井市"}, {"area_id": "222406", "area_name": "和龙市", "area_lng": "129.01077", "area_lat": "42.5464", "area_full_name": "中国,吉林省,延边朝鲜族自治州,和龙市"}, {"area_id": "222424", "area_name": "汪清县", "area_lng": "129.77121", "area_lat": "43.31278", "area_full_name": "中国,吉林省,延边朝鲜族自治州,汪清县"}, {"area_id": "222426", "area_name": "安图县", "area_lng": "128.90625", "area_lat": "43.11533", "area_full_name": "中国,吉林省,延边朝鲜族自治州,安图县"}]}, {"id": "230100", "city": "哈尔滨市", "lng": "126.642464", "lat": "45.756967", "city_code": "0451", "full_name": "中国,黑龙江省,哈尔滨市", "areas": [{"area_id": "230102", "area_name": "道里区", "area_lng": "126.61705", "area_lat": "45.75586", "area_full_name": "中国,黑龙江省,哈尔滨市,道里区"}, {"area_id": "230103", "area_name": "南岗区", "area_lng": "126.66854", "area_lat": "45.75996", "area_full_name": "中国,黑龙江省,哈尔滨市,南岗区"}, {"area_id": "230104", "area_name": "道外区", "area_lng": "126.64938", "area_lat": "45.79187", "area_full_name": "中国,黑龙江省,哈尔滨市,道外区"}, {"area_id": "230108", "area_name": "平房区", "area_lng": "126.63729", "area_lat": "45.59777", "area_full_name": "中国,黑龙江省,哈尔滨市,平房区"}, {"area_id": "230109", "area_name": "松北区", "area_lng": "126.56276", "area_lat": "45.80831", "area_full_name": "中国,黑龙江省,哈尔滨市,松北区"}, {"area_id": "230110", "area_name": "香坊区", "area_lng": "126.67968", "area_lat": "45.72383", "area_full_name": "中国,黑龙江省,哈尔滨市,香坊区"}, {"area_id": "230111", "area_name": "呼兰区", "area_lng": "126.58792", "area_lat": "45.88895", "area_full_name": "中国,黑龙江省,哈尔滨市,呼兰区"}, {"area_id": "230112", "area_name": "阿城区", "area_lng": "126.97525", "area_lat": "45.54144", "area_full_name": "中国,黑龙江省,哈尔滨市,阿城区"}, {"area_id": "230113", "area_name": "双城区", "area_lng": "126.308784", "area_lat": "45.377942", "area_full_name": "中国,黑龙江省,哈尔滨市,双城区"}, {"area_id": "230123", "area_name": "依兰县", "area_lng": "129.56817", "area_lat": "46.3247", "area_full_name": "中国,黑龙江省,哈尔滨市,依兰县"}, {"area_id": "230124", "area_name": "方正县", "area_lng": "128.82952", "area_lat": "45.85162", "area_full_name": "中国,黑龙江省,哈尔滨市,方正县"}, {"area_id": "230125", "area_name": "宾县", "area_lng": "127.48675", "area_lat": "45.75504", "area_full_name": "中国,黑龙江省,哈尔滨市,宾县"}, {"area_id": "230126", "area_name": "巴彦县", "area_lng": "127.40799", "area_lat": "46.08148", "area_full_name": "中国,黑龙江省,哈尔滨市,巴彦县"}, {"area_id": "230127", "area_name": "木兰县", "area_lng": "128.0448", "area_lat": "45.94944", "area_full_name": "中国,黑龙江省,哈尔滨市,木兰县"}, {"area_id": "230128", "area_name": "通河县", "area_lng": "128.74603", "area_lat": "45.99007", "area_full_name": "中国,黑龙江省,哈尔滨市,通河县"}, {"area_id": "230129", "area_name": "延寿县", "area_lng": "128.33419", "area_lat": "45.4554", "area_full_name": "中国,黑龙江省,哈尔滨市,延寿县"}, {"area_id": "230183", "area_name": "尚志市", "area_lng": "127.96191", "area_lat": "45.21736", "area_full_name": "中国,黑龙江省,哈尔滨市,尚志市"}, {"area_id": "230184", "area_name": "五常市", "area_lng": "127.16751", "area_lat": "44.93184", "area_full_name": "中国,黑龙江省,哈尔滨市,五常市"}]}, {"id": "230200", "city": "齐齐哈尔市", "lng": "123.953486", "lat": "47.348079", "city_code": "0452", "full_name": "中国,黑龙江省,齐齐哈尔市", "areas": [{"area_id": "230202", "area_name": "龙沙区", "area_lng": "123.95752", "area_lat": "47.31776", "area_full_name": "中国,黑龙江省,齐齐哈尔市,龙沙区"}, {"area_id": "230203", "area_name": "建华区", "area_lng": "124.0133", "area_lat": "47.36718", "area_full_name": "中国,黑龙江省,齐齐哈尔市,建华区"}, {"area_id": "230204", "area_name": "铁锋区", "area_lng": "123.97821", "area_lat": "47.34075", "area_full_name": "中国,黑龙江省,齐齐哈尔市,铁锋区"}, {"area_id": "230205", "area_name": "昂昂溪区", "area_lng": "123.82229", "area_lat": "47.15513", "area_full_name": "中国,黑龙江省,齐齐哈尔市,昂昂溪区"}, {"area_id": "230206", "area_name": "富拉尔基区", "area_lng": "123.62918", "area_lat": "47.20884", "area_full_name": "中国,黑龙江省,齐齐哈尔市,富拉尔基区"}, {"area_id": "230207", "area_name": "碾子山区", "area_lng": "122.88183", "area_lat": "47.51662", "area_full_name": "中国,黑龙江省,齐齐哈尔市,碾子山区"}, {"area_id": "230208", "area_name": "梅里斯达斡尔族区", "area_lng": "123.75274", "area_lat": "47.30946", "area_full_name": "中国,黑龙江省,齐齐哈尔市,梅里斯达斡尔族区"}, {"area_id": "230221", "area_name": "龙江县", "area_lng": "123.20532", "area_lat": "47.33868", "area_full_name": "中国,黑龙江省,齐齐哈尔市,龙江县"}, {"area_id": "230223", "area_name": "依安县", "area_lng": "125.30896", "area_lat": "47.8931", "area_full_name": "中国,黑龙江省,齐齐哈尔市,依安县"}, {"area_id": "230224", "area_name": "泰来县", "area_lng": "123.42285", "area_lat": "46.39386", "area_full_name": "中国,黑龙江省,齐齐哈尔市,泰来县"}, {"area_id": "230225", "area_name": "甘南县", "area_lng": "123.50317", "area_lat": "47.92437", "area_full_name": "中国,黑龙江省,齐齐哈尔市,甘南县"}, {"area_id": "230227", "area_name": "富裕县", "area_lng": "124.47457", "area_lat": "47.77431", "area_full_name": "中国,黑龙江省,齐齐哈尔市,富裕县"}, {"area_id": "230229", "area_name": "克山县", "area_lng": "125.87396", "area_lat": "48.03265", "area_full_name": "中国,黑龙江省,齐齐哈尔市,克山县"}, {"area_id": "230230", "area_name": "克东县", "area_lng": "126.24917", "area_lat": "48.03828", "area_full_name": "中国,黑龙江省,齐齐哈尔市,克东县"}, {"area_id": "230231", "area_name": "拜泉县", "area_lng": "126.09167", "area_lat": "47.60817", "area_full_name": "中国,黑龙江省,齐齐哈尔市,拜泉县"}, {"area_id": "230281", "area_name": "讷河市", "area_lng": "124.87713", "area_lat": "48.48388", "area_full_name": "中国,黑龙江省,齐齐哈尔市,讷河市"}]}, {"id": "230300", "city": "鸡西市", "lng": "130.975966", "lat": "45.300046", "city_code": "0467", "full_name": "中国,黑龙江省,鸡西市", "areas": [{"area_id": "230302", "area_name": "鸡冠区", "area_lng": "130.98139", "area_lat": "45.30396", "area_full_name": "中国,黑龙江省,鸡西市,鸡冠区"}, {"area_id": "230303", "area_name": "恒山区", "area_lng": "130.90493", "area_lat": "45.21071", "area_full_name": "中国,黑龙江省,鸡西市,恒山区"}, {"area_id": "230304", "area_name": "滴道区", "area_lng": "130.84841", "area_lat": "45.35109", "area_full_name": "中国,黑龙江省,鸡西市,滴道区"}, {"area_id": "230305", "area_name": "梨树区", "area_lng": "130.69848", "area_lat": "45.09037", "area_full_name": "中国,黑龙江省,鸡西市,梨树区"}, {"area_id": "230306", "area_name": "城子河区", "area_lng": "131.01132", "area_lat": "45.33689", "area_full_name": "中国,黑龙江省,鸡西市,城子河区"}, {"area_id": "230307", "area_name": "麻山区", "area_lng": "130.47811", "area_lat": "45.21209", "area_full_name": "中国,黑龙江省,鸡西市,麻山区"}, {"area_id": "230321", "area_name": "鸡东县", "area_lng": "131.12423", "area_lat": "45.26025", "area_full_name": "中国,黑龙江省,鸡西市,鸡东县"}, {"area_id": "230381", "area_name": "虎林市", "area_lng": "132.93679", "area_lat": "45.76291", "area_full_name": "中国,黑龙江省,鸡西市,虎林市"}, {"area_id": "230382", "area_name": "密山市", "area_lng": "131.84625", "area_lat": "45.5297", "area_full_name": "中国,黑龙江省,鸡西市,密山市"}]}, {"id": "230400", "city": "鹤岗市", "lng": "130.277487", "lat": "47.332085", "city_code": "0468", "full_name": "中国,黑龙江省,鹤岗市", "areas": [{"area_id": "230402", "area_name": "向阳区", "area_lng": "130.2943", "area_lat": "47.34247", "area_full_name": "中国,黑龙江省,鹤岗市,向阳区"}, {"area_id": "230403", "area_name": "工农区", "area_lng": "130.27468", "area_lat": "47.31869", "area_full_name": "中国,黑龙江省,鹤岗市,工农区"}, {"area_id": "230404", "area_name": "南山区", "area_lng": "130.27676", "area_lat": "47.31404", "area_full_name": "中国,黑龙江省,鹤岗市,南山区"}, {"area_id": "230405", "area_name": "兴安区", "area_lng": "130.23965", "area_lat": "47.2526", "area_full_name": "中国,黑龙江省,鹤岗市,兴安区"}, {"area_id": "230406", "area_name": "东山区", "area_lng": "130.31706", "area_lat": "47.33853", "area_full_name": "中国,黑龙江省,鹤岗市,东山区"}, {"area_id": "230407", "area_name": "兴山区", "area_lng": "130.29271", "area_lat": "47.35776", "area_full_name": "中国,黑龙江省,鹤岗市,兴山区"}, {"area_id": "230421", "area_name": "萝北县", "area_lng": "130.83346", "area_lat": "47.57959", "area_full_name": "中国,黑龙江省,鹤岗市,萝北县"}, {"area_id": "230422", "area_name": "绥滨县", "area_lng": "131.86029", "area_lat": "47.2903", "area_full_name": "中国,黑龙江省,鹤岗市,绥滨县"}]}, {"id": "230500", "city": "双鸭山市", "lng": "131.157304", "lat": "46.643442", "city_code": "0469", "full_name": "中国,黑龙江省,双鸭山市", "areas": [{"area_id": "230502", "area_name": "尖山区", "area_lng": "131.15841", "area_lat": "46.64635", "area_full_name": "中国,黑龙江省,双鸭山市,尖山区"}, {"area_id": "230503", "area_name": "岭东区", "area_lng": "131.16473", "area_lat": "46.59043", "area_full_name": "中国,黑龙江省,双鸭山市,岭东区"}, {"area_id": "230505", "area_name": "四方台区", "area_lng": "131.33593", "area_lat": "46.59499", "area_full_name": "中国,黑龙江省,双鸭山市,四方台区"}, {"area_id": "230506", "area_name": "宝山区", "area_lng": "131.4016", "area_lat": "46.57718", "area_full_name": "中国,黑龙江省,双鸭山市,宝山区"}, {"area_id": "230521", "area_name": "集贤县", "area_lng": "131.14053", "area_lat": "46.72678", "area_full_name": "中国,黑龙江省,双鸭山市,集贤县"}, {"area_id": "230522", "area_name": "友谊县", "area_lng": "131.80789", "area_lat": "46.76739", "area_full_name": "中国,黑龙江省,双鸭山市,友谊县"}, {"area_id": "230523", "area_name": "宝清县", "area_lng": "132.19695", "area_lat": "46.32716", "area_full_name": "中国,黑龙江省,双鸭山市,宝清县"}, {"area_id": "230524", "area_name": "饶河县", "area_lng": "134.01986", "area_lat": "46.79899", "area_full_name": "中国,黑龙江省,双鸭山市,饶河县"}]}, {"id": "230600", "city": "大庆市", "lng": "125.11272", "lat": "46.590734", "city_code": "0459", "full_name": "中国,黑龙江省,大庆市", "areas": [{"area_id": "230602", "area_name": "萨尔图区", "area_lng": "125.08792", "area_lat": "46.59359", "area_full_name": "中国,黑龙江省,大庆市,萨尔图区"}, {"area_id": "230603", "area_name": "龙凤区", "area_lng": "125.11657", "area_lat": "46.53273", "area_full_name": "中国,黑龙江省,大庆市,龙凤区"}, {"area_id": "230604", "area_name": "让胡路区", "area_lng": "124.87075", "area_lat": "46.6522", "area_full_name": "中国,黑龙江省,大庆市,让胡路区"}, {"area_id": "230605", "area_name": "红岗区", "area_lng": "124.89248", "area_lat": "46.40128", "area_full_name": "中国,黑龙江省,大庆市,红岗区"}, {"area_id": "230606", "area_name": "大同区", "area_lng": "124.81591", "area_lat": "46.03295", "area_full_name": "中国,黑龙江省,大庆市,大同区"}, {"area_id": "230621", "area_name": "肇州县", "area_lng": "125.27059", "area_lat": "45.70414", "area_full_name": "中国,黑龙江省,大庆市,肇州县"}, {"area_id": "230622", "area_name": "肇源县", "area_lng": "125.08456", "area_lat": "45.52032", "area_full_name": "中国,黑龙江省,大庆市,肇源县"}, {"area_id": "230623", "area_name": "林甸县", "area_lng": "124.87564", "area_lat": "47.18601", "area_full_name": "中国,黑龙江省,大庆市,林甸县"}, {"area_id": "230624", "area_name": "杜尔伯特蒙古族自治县", "area_lng": "124.44937", "area_lat": "46.86507", "area_full_name": "中国,黑龙江省,大庆市,杜尔伯特蒙古族自治县"}]}, {"id": "230700", "city": "伊春市", "lng": "128.899396", "lat": "47.724775", "city_code": "0458", "full_name": "中国,黑龙江省,伊春市", "areas": [{"area_id": "230702", "area_name": "伊春区", "area_lng": "128.90752", "area_lat": "47.728", "area_full_name": "中国,黑龙江省,伊春市,伊春区"}, {"area_id": "230703", "area_name": "南岔区", "area_lng": "129.28362", "area_lat": "47.13897", "area_full_name": "中国,黑龙江省,伊春市,南岔区"}, {"area_id": "230704", "area_name": "友好区", "area_lng": "128.84039", "area_lat": "47.85371", "area_full_name": "中国,黑龙江省,伊春市,友好区"}, {"area_id": "230705", "area_name": "西林区", "area_lng": "129.31201", "area_lat": "47.48103", "area_full_name": "中国,黑龙江省,伊春市,西林区"}, {"area_id": "230706", "area_name": "翠峦区", "area_lng": "128.66729", "area_lat": "47.72503", "area_full_name": "中国,黑龙江省,伊春市,翠峦区"}, {"area_id": "230707", "area_name": "新青区", "area_lng": "129.53653", "area_lat": "48.29067", "area_full_name": "中国,黑龙江省,伊春市,新青区"}, {"area_id": "230708", "area_name": "美溪区", "area_lng": "129.13708", "area_lat": "47.63513", "area_full_name": "中国,黑龙江省,伊春市,美溪区"}, {"area_id": "230709", "area_name": "金山屯区", "area_lng": "129.43768", "area_lat": "47.41349", "area_full_name": "中国,黑龙江省,伊春市,金山屯区"}, {"area_id": "230710", "area_name": "五营区", "area_lng": "129.24545", "area_lat": "48.10791", "area_full_name": "中国,黑龙江省,伊春市,五营区"}, {"area_id": "230711", "area_name": "乌马河区", "area_lng": "128.79672", "area_lat": "47.728", "area_full_name": "中国,黑龙江省,伊春市,乌马河区"}, {"area_id": "230712", "area_name": "汤旺河区", "area_lng": "129.57226", "area_lat": "48.45182", "area_full_name": "中国,黑龙江省,伊春市,汤旺河区"}, {"area_id": "230713", "area_name": "带岭区", "area_lng": "129.02352", "area_lat": "47.02553", "area_full_name": "中国,黑龙江省,伊春市,带岭区"}, {"area_id": "230714", "area_name": "乌伊岭区", "area_lng": "129.43981", "area_lat": "48.59602", "area_full_name": "中国,黑龙江省,伊春市,乌伊岭区"}, {"area_id": "230715", "area_name": "红星区", "area_lng": "129.3887", "area_lat": "48.23944", "area_full_name": "中国,黑龙江省,伊春市,红星区"}, {"area_id": "230716", "area_name": "上甘岭区", "area_lng": "129.02447", "area_lat": "47.97522", "area_full_name": "中国,黑龙江省,伊春市,上甘岭区"}, {"area_id": "230722", "area_name": "嘉荫县", "area_lng": "130.39825", "area_lat": "48.8917", "area_full_name": "中国,黑龙江省,伊春市,嘉荫县"}, {"area_id": "230781", "area_name": "铁力市", "area_lng": "128.0317", "area_lat": "46.98571", "area_full_name": "中国,黑龙江省,伊春市,铁力市"}]}, {"id": "230800", "city": "佳木斯市", "lng": "130.361634", "lat": "46.809606", "city_code": "0454", "full_name": "中国,黑龙江省,佳木斯市", "areas": [{"area_id": "230803", "area_name": "向阳区", "area_lng": "130.36519", "area_lat": "46.80778", "area_full_name": "中国,黑龙江省,佳木斯市,向阳区"}, {"area_id": "230804", "area_name": "前进区", "area_lng": "130.37497", "area_lat": "46.81401", "area_full_name": "中国,黑龙江省,佳木斯市,前进区"}, {"area_id": "230805", "area_name": "东风区", "area_lng": "130.40366", "area_lat": "46.82257", "area_full_name": "中国,黑龙江省,佳木斯市,东风区"}, {"area_id": "230811", "area_name": "郊区", "area_lng": "130.32731", "area_lat": "46.80958", "area_full_name": "中国,黑龙江省,佳木斯市,郊区"}, {"area_id": "230822", "area_name": "桦南县", "area_lng": "130.55361", "area_lat": "46.23921", "area_full_name": "中国,黑龙江省,佳木斯市,桦南县"}, {"area_id": "230826", "area_name": "桦川县", "area_lng": "130.71893", "area_lat": "47.02297", "area_full_name": "中国,黑龙江省,佳木斯市,桦川县"}, {"area_id": "230828", "area_name": "汤原县", "area_lng": "129.90966", "area_lat": "46.72755", "area_full_name": "中国,黑龙江省,佳木斯市,汤原县"}, {"area_id": "230833", "area_name": "抚远县", "area_lng": "134.29595", "area_lat": "48.36794", "area_full_name": "中国,黑龙江省,佳木斯市,抚远县"}, {"area_id": "230881", "area_name": "同江市", "area_lng": "132.51095", "area_lat": "47.64211", "area_full_name": "中国,黑龙江省,佳木斯市,同江市"}, {"area_id": "230882", "area_name": "富锦市", "area_lng": "132.03707", "area_lat": "47.25132", "area_full_name": "中国,黑龙江省,佳木斯市,富锦市"}]}, {"id": "230900", "city": "七台河市", "lng": "131.015584", "lat": "45.771266", "city_code": "0464", "full_name": "中国,黑龙江省,七台河市", "areas": [{"area_id": "230902", "area_name": "新兴区", "area_lng": "130.93212", "area_lat": "45.81624", "area_full_name": "中国,黑龙江省,七台河市,新兴区"}, {"area_id": "230903", "area_name": "桃山区", "area_lng": "131.01786", "area_lat": "45.76782", "area_full_name": "中国,黑龙江省,七台河市,桃山区"}, {"area_id": "230904", "area_name": "茄子河区", "area_lng": "131.06807", "area_lat": "45.78519", "area_full_name": "中国,黑龙江省,七台河市,茄子河区"}, {"area_id": "230921", "area_name": "勃利县", "area_lng": "130.59179", "area_lat": "45.755", "area_full_name": "中国,黑龙江省,七台河市,勃利县"}]}, {"id": "231000", "city": "牡丹江市", "lng": "129.618602", "lat": "44.582962", "city_code": "0453", "full_name": "中国,黑龙江省,牡丹江市", "areas": [{"area_id": "231002", "area_name": "东安区", "area_lng": "129.62665", "area_lat": "44.58133", "area_full_name": "中国,黑龙江省,牡丹江市,东安区"}, {"area_id": "231003", "area_name": "阳明区", "area_lng": "129.63547", "area_lat": "44.59603", "area_full_name": "中国,黑龙江省,牡丹江市,阳明区"}, {"area_id": "231004", "area_name": "爱民区", "area_lng": "129.59077", "area_lat": "44.59648", "area_full_name": "中国,黑龙江省,牡丹江市,爱民区"}, {"area_id": "231005", "area_name": "西安区", "area_lng": "129.61616", "area_lat": "44.57766", "area_full_name": "中国,黑龙江省,牡丹江市,西安区"}, {"area_id": "231024", "area_name": "东宁县", "area_lng": "131.12793", "area_lat": "44.0661", "area_full_name": "中国,黑龙江省,牡丹江市,东宁县"}, {"area_id": "231025", "area_name": "林口县", "area_lng": "130.28393", "area_lat": "45.27809", "area_full_name": "中国,黑龙江省,牡丹江市,林口县"}, {"area_id": "231081", "area_name": "绥芬河市", "area_lng": "131.15139", "area_lat": "44.41249", "area_full_name": "中国,黑龙江省,牡丹江市,绥芬河市"}, {"area_id": "231083", "area_name": "海林市", "area_lng": "129.38156", "area_lat": "44.59", "area_full_name": "中国,黑龙江省,牡丹江市,海林市"}, {"area_id": "231084", "area_name": "宁安市", "area_lng": "129.48303", "area_lat": "44.34016", "area_full_name": "中国,黑龙江省,牡丹江市,宁安市"}, {"area_id": "231085", "area_name": "穆棱市", "area_lng": "130.52465", "area_lat": "44.919", "area_full_name": "中国,黑龙江省,牡丹江市,穆棱市"}]}, {"id": "231100", "city": "黑河市", "lng": "127.499023", "lat": "50.249585", "city_code": "0456", "full_name": "中国,黑龙江省,黑河市", "areas": [{"area_id": "231102", "area_name": "爱辉区", "area_lng": "127.50074", "area_lat": "50.25202", "area_full_name": "中国,黑龙江省,黑河市,爱辉区"}, {"area_id": "231121", "area_name": "嫩江县", "area_lng": "125.22607", "area_lat": "49.17844", "area_full_name": "中国,黑龙江省,黑河市,嫩江县"},